city,growth,latitude,longitude,population,state
St. Cloud,86.2,28.2489016,-81.2811801,40918,Florida
Normal,19.7,40.5142026,-88.9906312,54664,Illinois
La Puente,-1.6,34.0200114,-117.9495083,40435,California
Skokie,2.8,42.0324025,-87.7416246,65176,Illinois
San Mateo,9,37.5629917,-122.3255254,101128,California
Cedar Falls,12,42.5348993,-92.4453161,40566,Iowa
Farmington Hills,-0.9,42.4989936,-83.3677168,81295,Michigan
Garden Grove,5.8,33.7739053,-117.9414477,175140,California
Redondo Beach,6.7,33.8491816,-118.3884078,67815,California
Urbandale,41.5,41.6266555,-93.71216559999999,41776,Iowa
Daly City,1,37.6879241,-122.4702079,104739,California
Elgin,16,42.0354084,-88.2825668,110145,Illinois
Bartlett,31.7,35.2045328,-89.8739753,58226,Tennessee
Gary,-23.4,41.5933696,-87.3464271,78450,Indiana
Huntsville,13.2,30.7235263,-95.55077709999999,39795,Texas
Altamonte Springs,2,28.6611089,-81.3656242,42150,Florida
Coppell,10.3,32.9545687,-97.01500779999999,40342,Texas
Springfield,7.8,37.2089572,-93.29229889999999,164122,Missouri
Cape Girardeau,9.4,37.3058839,-89.51814759999999,38816,Missouri
Hayward,7.5,37.6688205,-122.0807964,151574,California
College Station,45.2,30.627977,-96.3344068,100050,Texas
Gardena,3.4,33.8883487,-118.3089624,59957,California
Longview,11.6,32.5007037,-94.74048909999999,81443,Texas
Alameda,5.4,37.7652065,-122.2416355,76419,California
Coeur d'Alene,32.8,47.6776832,-116.7804664,46402,Idaho
Columbus,14.8,39.9611755,-82.99879419999999,822553,Ohio
Union City,1.7,40.6975898,-74.26316349999999,68247,New Jersey
Centennial,3.5,39.5807452,-104.8771726,106114,Colorado
Cambridge,5.5,42.3736158,-71.10973349999999,107289,Massachusetts
Sherman,11.6,33.6356618,-96.6088805,39296,Texas
Bristol,0.4,41.67176480000001,-72.9492703,60568,Connecticut
Crystal Lake,5.3,42.2411344,-88.31619649999999,40388,Illinois
Downey,5.3,33.9401088,-118.1331593,113242,California
Sunrise,4.6,26.1669711,-80.25659499999999,90116,Florida
Pinellas Park,5.9,27.8428025,-82.6995443,49998,Florida
Plantation,8.6,26.1275862,-80.23310359999999,90268,Florida
Burlington,12.1,36.0956918,-79.43779909999999,51510,North Carolina
Cupertino,14.3,37.3229978,-122.0321823,60189,California
Simi Valley,12.6,34.2694474,-118.781482,126181,California
Arlington,13.3,32.735687,-97.10806559999999,379577,Texas
Frisco,287.7,33.1506744,-96.82361159999999,136791,Texas
Mishawaka,2,41.6619927,-86.15861559999999,47989,Indiana
West Jordan,38.4,40.6096698,-111.9391031,110077,Utah
St. Clair Shores,-4.6,42.4974085,-82.89636039999999,60070,Michigan
Woodland,13.8,38.67851570000001,-121.7732971,56590,California
Newark,3.3,37.5296593,-122.0402399,44096,California
Richardson,13.2,32.9483335,-96.7298519,104475,Texas
Dearborn Heights,-3,42.3369816,-83.27326269999999,56620,Michigan
New Britain,1.9,41.6612104,-72.7795419,72939,Connecticut
Sioux City,-2.9,42.4999942,-96.40030689999999,82459,Iowa
Bellevue,20.5,41.1543623,-95.9145568,53663,Nebraska
Kennewick,29.1,46.2112458,-119.1372338,76762,Washington
Jefferson City,6.7,38.57670170000001,-92.1735164,43330,Missouri
Palm Coast,137.2,29.5844524,-81.20786989999999,78740,Florida
Huber Heights,-0.2,39.843947,-84.12466080000002,38142,Ohio
Lawton,4.9,34.6035669,-98.39592909999999,97151,Oklahoma
Upland,9.5,34.09751,-117.6483876,75413,California
Warwick,-4.6,41.7001009,-71.4161671,81971,Rhode Island
Eugene,14.4,44.0520691,-123.0867536,159190,Oregon
Tallahassee,21.8,30.4382559,-84.28073289999999,186411,Florida
Bell Gardens,-2.7,33.9652918,-118.1514588,42889,California
Cape Coral,60.4,26.5628537,-81.9495331,165831,Florida
Germantown,4.1,35.0867577,-89.8100858,39375,Tennessee
Philadelphia,2.6,39.9525839,-75.1652215,1553165,Pennsylvania
Greensboro,22.3,36.0726354,-79.7919754,279639,North Carolina
Hanford,30.3,36.3274502,-119.6456844,54686,California
Hackensack,2.9,40.8859325,-74.0434736,44113,New Jersey
Campbell,4.2,37.2871651,-121.9499568,40584,California
Bullhead City,15.9,35.1359386,-114.5285981,39383,Arizona
Asheville,19.6,35.5950581,-82.5514869,87236,North Carolina
Sierra Vista,19.3,31.5455001,-110.2772856,45129,Arizona
Sterling Heights,5.2,42.5803122,-83.0302033,131224,Michigan
Prescott,18.1,34.5400242,-112.4685025,40590,Arizona
Texas City,10.3,29.383845,-94.9027002,46081,Texas
Aventura,47.2,25.9564812,-80.1392121,37199,Florida
Elkhart,-2.5,41.6819935,-85.9766671,51265,Indiana
Oceanside,6.6,33.1958696,-117.3794834,172794,California
Collierville,43.4,35.042036,-89.6645266,47333,Tennessee
Elyria,-3.7,41.3683798,-82.10764859999999,53956,Ohio
Syracuse,-0.9,43.0481221,-76.14742439999999,144669,New York
Wilkes-Barre,-4.3,41.2459149,-75.88130749999999,41108,Pennsylvania
Schaumburg,-0.5,42.0333607,-88.0834059,74907,Illinois
Norwich,11.6,41.5242649,-72.07591049999999,40347,Connecticut
Fayetteville,2.4,35.0526641,-78.87835849999999,204408,North Carolina
Yakima,11.7,46.6020711,-120.5058987,93257,Washington
Pasadena,7.5,29.6910625,-95.2091006,152735,Texas
South Jordan,100.1,40.5621704,-111.929658,59366,Utah
Huntington Park,-4.1,33.9816812,-118.2250725,58879,California
Mesa,13.5,33.4151843,-111.8314724,457587,Arizona
Azusa,6.7,34.1336186,-117.9075627,47842,California
Bethlehem,5.2,40.6259316,-75.37045789999999,75018,Pennsylvania
Manhattan,22.8,39.18360819999999,-96.57166939999999,56143,Kansas
Blaine,32.8,45.1607987,-93.23494889999999,60407,Minnesota
West Sacramento,55.6,38.5804609,-121.530234,49891,California
Vista,7.7,33.2000368,-117.2425355,96929,California
Reno,26.8,39.5296329,-119.8138027,233294,Nevada
Santa Rosa,15.2,38.440429,-122.7140548,171990,California
Meridian,-0.9,32.3643098,-88.703656,40921,Mississippi
Portage,5.7,42.2011538,-85.5800022,47523,Michigan
Richmond,8.2,37.5407246,-77.4360481,214114,Virginia
El Cajon,7.4,32.7947731,-116.9625269,102211,California
Fort Worth,45.1,32.7554883,-97.3307658,792727,Texas
San Angelo,10.2,31.4637723,-100.4370375,97492,Texas
Rancho Cucamonga,32.7,34.10639889999999,-117.5931084,171386,California
Hartford,0.6,41.76371109999999,-72.6850932,125017,Connecticut
Terre Haute,2.5,39.4667034,-87.41390919999999,61025,Indiana
Edmond,26.9,35.6528323,-97.47809540000002,87004,Oklahoma
Clifton,7.9,40.8584328,-74.16375529999999,85390,New Jersey
Corvallis,11.8,44.5645659,-123.2620435,55298,Oregon
Schenectady,6.7,42.8142432,-73.9395687,65902,New York
Oro Valley,27,32.3909071,-110.966488,41627,Arizona
Noblesville,88.1,40.0455917,-86.0085955,56540,Indiana
Downers Grove,0,41.8089191,-88.01117459999999,49670,Illinois
Chula Vista,46.2,32.6400541,-117.0841955,256780,California
Calumet City,-4.5,41.6155909,-87.5294871,37240,Illinois
Waco,12.5,31.549333,-97.1466695,129030,Texas
Tustin,15.6,33.7458511,-117.826166,78327,California
Cathedral City,23.2,33.7805388,-116.4668036,52977,California
Fort Smith,8.6,35.3859242,-94.39854749999999,87650,Arkansas
Green Bay,1.9,44.51915899999999,-88.019826,104779,Wisconsin
Galveston,-15.2,29.3013479,-94.7976958,48733,Texas
Wauwatosa,0,43.0494572,-88.0075875,47134,Wisconsin
Lewisville,28.9,33.046233,-96.994174,101074,Texas
Arcadia,8.3,34.1397292,-118.0353449,57639,California
Anchorage,15.4,61.2180556,-149.9002778,300950,Alaska
Livermore,15.1,37.6818745,-121.7680088,85156,California
Garland,8.5,32.912624,-96.63888329999999,234566,Texas
Decatur,3.1,34.6059253,-86.9833417,55816,Alabama
Grand Rapids,-2.8,42.9633599,-85.6680863,192294,Michigan
Federal Way,8.8,47.3223221,-122.3126222,92734,Washington
Oakland,1.3,37.8043637,-122.2711137,406253,California
Norman,22,35.2225668,-97.4394777,118197,Oklahoma
Dothan,16.6,31.2232313,-85.3904888,68001,Alabama
Corona,23.6,33.8752935,-117.5664384,159503,California
Hattiesburg,3.1,31.3271189,-89.29033919999999,47556,Mississippi
Chandler,38.7,33.3061605,-111.8412502,249146,Arizona
Honolulu,-6.2,21.3069444,-157.8583333,347884,Hawaii
Miami Gardens,10.5,25.9420377,-80.2456045,111378,Florida
Smyrna,54.9,35.9828412,-86.5186045,43060,Tennessee
Lancaster,46.4,32.5920798,-96.7561082,38071,Texas
Porterville,20.1,36.06523,-119.0167679,55174,California
Grand Forks,11.5,47.9252568,-97.0328547,54932,North Dakota
St. Joseph,4.1,39.7674578,-94.84668099999999,77147,Missouri
Ames,21.3,42.034722,-93.61999999999999,61792,Iowa
Lakewood,1.1,47.1717649,-122.518458,59097,Washington
High Point,24.3,35.9556923,-80.0053176,107741,North Carolina
Maplewood,12.3,44.9530215,-92.9952153,39765,Minnesota
Richmond,7.9,37.9357576,-122.3477486,107571,California
Newport News,0.9,37.0870821,-76.4730122,182020,Virginia
Salina,4.5,38.8402805,-97.61142369999999,47846,Kansas
Evanston,1.9,42.0450722,-87.68769689999999,75570,Illinois
Sheboygan,-3.9,43.7508284,-87.71453,48725,Wisconsin
Mansfield,114.2,32.5631924,-97.1416768,60872,Texas
Hendersonville,31.7,36.3047735,-86.6199957,54068,Tennessee
Scranton,0,41.408969,-75.66241219999999,75806,Pennsylvania
Conroe,61.9,30.3118769,-95.45605119999999,63032,Texas
Riverside,22.5,33.9533487,-117.3961564,316619,California
West Covina,2.3,34.0686208,-117.9389526,107740,California
Bentonville,97.7,36.3728538,-94.2088172,40167,Arkansas
Peoria,3,40.6936488,-89.5889864,116513,Illinois
Warren,-2.3,42.5144566,-83.01465259999999,134873,Michigan
San Jacinto,91.8,33.7839084,-116.958635,45851,California
Surprise,281.9,33.6292337,-112.3679279,123546,Arizona
Yucaipa,26.8,34.033625,-117.0430865,52536,California
Duluth,-0.1,46.78667189999999,-92.1004852,86128,Minnesota
The Colony,45.7,33.0806083,-96.89283089999999,39458,Texas
Elizabeth,5.5,40.6639916,-74.2107006,127558,New Jersey
Altoona,-7.3,40.5186809,-78.3947359,45796,Pennsylvania
Lake Havasu City,24.6,34.483901,-114.3224548,52844,Arizona
La Mirada,4.6,33.9172357,-118.0120086,49133,California
Augusta-Richmond County,1.1,33.4734978,-82.0105148,197350,Georgia
Gresham,20.7,45.5001357,-122.4302013,109397,Oregon
Hagerstown,10.4,39.6417629,-77.71999319999999,40612,Maryland
Lincoln,285.2,38.891565,-121.2930079,45237,California
Providence,2.3,41.8239891,-71.4128343,177994,Rhode Island
Bloomington,1.3,44.840798,-93.2982799,86319,Minnesota
Greenville,41.9,35.612661,-77.3663538,89130,North Carolina
Rohnert Park,0,38.3396367,-122.7010984,41398,California
Cuyahoga Falls,-0.2,41.1339449,-81.48455849999999,49267,Ohio
Florence,10.2,34.79981,-87.677251,40059,Alabama
Alhambra,-0.7,34.095287,-118.1270146,84577,California
Springfield,12.4,44.0462362,-123.0220289,60177,Oregon
Park Ridge,0.1,42.0111412,-87.84061919999999,37839,Illinois
Waltham,5,42.3764852,-71.2356113,62227,Massachusetts
Aurora,24.4,39.7294319,-104.8319195,345803,Colorado
Johns Creek,36.5,34.0289259,-84.198579,82788,Georgia
Binghamton,-1.7,42.09868669999999,-75.91797380000001,46444,New York
Mesquite,14.7,32.76679550000001,-96.5991593,143484,Texas
Novi,22,42.48059,-83.4754913,57960,Michigan
Savannah,7.5,32.0835407,-81.09983419999999,142772,Georgia
Arvada,9.2,39.8027644,-105.0874842,111707,Colorado
Annapolis,7.6,38.9784453,-76.4921829,38722,Maryland
Lodi,10.1,38.1341477,-121.2722194,63338,California
Janesville,5.6,42.6827885,-89.0187222,63820,Wisconsin
Racine,-4.4,42.7261309,-87.78285230000002,78199,Wisconsin
Perth Amboy,9.7,40.5067723,-74.2654234,51982,New Jersey
Tucson,7.5,32.2217429,-110.926479,526116,Arizona
North Richland Hills,20.2,32.8342952,-97.2289029,67317,Texas
Shawnee,32.2,39.02284849999999,-94.7151865,64323,Kansas
Hurst,5.8,32.8234621,-97.1705678,38448,Texas
Idaho Falls,14,43.49165139999999,-112.0339645,58292,Idaho
Rock Island,-1.9,41.5094771,-90.5787476,38877,Illinois
La Crosse,-0.8,43.8013556,-91.23958069999999,51522,Wisconsin
Milford,1.8,41.2306979,-73.064036,51644,Connecticut
Lake Oswego,5.3,45.42067489999999,-122.6706498,37610,Oregon
Springfield,4.2,39.78172130000001,-89.6501481,117006,Illinois
Blacksburg,9.4,37.2295733,-80.4139393,43609,Virginia
Billings,18.6,45.7832856,-108.5006904,109059,Montana
Chico,14.2,39.7284944,-121.8374777,88077,California
Hamilton,2.7,39.3995008,-84.5613355,62258,Ohio
Redwood City,7.1,37.48521520000001,-122.2363548,80872,California
Council Bluffs,6.2,41.2619444,-95.8608333,61969,Iowa
Woonsocket,-5.2,42.00287609999999,-71.51478390000001,41026,Rhode Island
Bossier City,17.4,32.5159852,-93.7321228,66333,Louisiana
Aurora,38.4,41.7605849,-88.32007150000001,199963,Illinois
Weymouth Town,0,42.2180724,-70.94103559999999,55419,Massachusetts
El Paso,19.4,31.7775757,-106.4424559,674433,Texas
Fort Pierce,6.9,27.4467056,-80.3256056,43074,Florida
Orange,7.7,33.7877944,-117.8531119,139969,California
Buckeye,480.9,33.3703197,-112.5837766,56683,Arizona
Merced,25.4,37.3021632,-120.4829677,81102,California
Chapel Hill,24.1,35.9131996,-79.0558445,59635,North Carolina
Montgomery,-0.1,32.3668052,-86.2999689,201332,Alabama
Lakewood,1.9,39.7047095,-105.0813734,147214,Colorado
Odessa,22.3,31.8456816,-102.3676431,110720,Texas
Youngstown,-20.2,41.0997803,-80.6495194,65184,Ohio
Charleston,29.2,32.7764749,-79.93105120000001,127999,South Carolina
Topeka,3.4,39.0558235,-95.68901849999999,127679,Kansas
New Braunfels,64,29.7030024,-98.1244531,63279,Texas
Vallejo,1.2,38.1040864,-122.2566367,118837,California
Yuba City,27.9,39.1404477,-121.6169108,65416,California
Homestead,100.7,25.4687224,-80.4775569,64079,Florida
Cary,55.1,35.79154,-78.7811169,151088,North Carolina
Apex,98.8,35.732652,-78.85028559999999,42214,North Carolina
Winston-Salem,16.9,36.09985959999999,-80.244216,236441,North Carolina
Ontario,5.5,34.0633443,-117.6508876,167500,California
Davis,11.9,38.5449065,-121.7405167,66205,California
Linden,4.7,40.6220478,-74.24459019999999,41301,New Jersey
Wylie,185.2,33.0151201,-96.5388789,44575,Texas
Middletown,3.6,41.5623209,-72.6506488,47333,Connecticut
Reading,8,40.3356483,-75.9268747,87893,Pennsylvania
Taylorsville,2.9,40.66772479999999,-111.9388258,60519,Utah
West Haven,5.1,41.2705484,-72.9469711,55046,Connecticut
Miami Beach,3.3,25.790654,-80.1300455,91026,Florida
Saginaw,-18.2,43.4194699,-83.9508068,50303,Michigan
Lorain,-7.2,41.452819,-82.1823746,63710,Ohio
Arlington Heights,-0.6,42.0883603,-87.98062650000001,75994,Illinois
Worcester,5.8,42.2625932,-71.8022934,182544,Massachusetts
Charlotte,39.1,35.2270869,-80.8431267,792862,North Carolina
Jupiter,46.2,26.9342246,-80.0942087,58298,Florida
National City,10.1,32.6781085,-117.0991967,59834,California
Chino Hills,13.6,33.9898188,-117.7325848,76572,California
Thousand Oaks,9.5,34.1705609,-118.8375937,128731,California
Deltona,23.1,28.9005446,-81.26367379999999,86290,Florida
Methuen,10.3,42.7262016,-71.1908924,48514,Massachusetts
Yorba Linda,13.4,33.8886259,-117.8131125,67032,California
Manteca,42.7,37.7974273,-121.2160526,71948,California
Hialeah,3.2,25.8575963,-80.2781057,233394,Florida
Rochester,-4.1,43.16103,-77.6109219,210358,New York
Brooklyn Park,16,45.0941315,-93.3563405,78373,Minnesota
North Little Rock,9,34.769536,-92.2670941,66075,Arkansas
Midland,0.9,43.6155825,-84.2472116,42181,Michigan
Beaumont,3.7,30.080174,-94.1265562,117796,Texas
Fayetteville,32.9,36.0625795,-94.1574263,78960,Arkansas
Naperville,12,41.7508391,-88.1535352,144864,Illinois
Milpitas,11,37.4323341,-121.8995741,69783,California
Pompano Beach,4,26.2378597,-80.1247667,104410,Florida
Medford,17.1,42.3265152,-122.8755949,77677,Oregon
New Bedford,1.2,41.6362152,-70.93420499999999,95078,Massachusetts
Lenexa,24.6,38.9536174,-94.73357089999999,50344,Kansas
Great Falls,3.9,47.4941836,-111.2833449,59351,Montana
Santa Maria,30.9,34.9530337,-120.4357191,102216,California
Woodbury,39.8,44.9238552,-92.9593797,65656,Minnesota
Hutchinson,0.1,38.0608445,-97.92977429999999,41889,Kansas
Miramar,74.7,25.9860762,-80.30356019999999,130288,Florida
Casper,19.9,42.866632,-106.313081,59628,Wyoming
Hillsboro,36.4,45.5228939,-122.989827,97368,Oregon
Monterey Park,1.5,34.0625106,-118.1228476,61085,California
Carmel,60.4,39.978371,-86.1180435,85927,Indiana
Roswell,15.2,34.0232431,-84.3615555,94034,Georgia
Blue Springs,9.9,39.0169509,-94.2816148,53294,Missouri
South San Francisco,9.1,37.654656,-122.4077498,66174,California
Compton,4.5,33.8958492,-118.2200712,97877,California
Danville,3.7,37.8215929,-121.9999606,43341,California
Pearland,117.2,29.5635666,-95.2860474,100065,Texas
Pacifica,0.5,37.6138253,-122.4869194,38606,California
Boynton Beach,17.3,26.5317866,-80.0905465,71097,Florida
Rapid City,17.9,44.0805434,-103.2310149,70812,South Dakota
Somerville,1.6,42.3875968,-71.0994968,78804,Massachusetts
San Ramon,65.8,37.7799273,-121.9780153,74513,California
Tulare,33.3,36.2077288,-119.3473379,61170,California
Passaic,4.3,40.8567662,-74.1284764,70868,New Jersey
Keizer,14.4,44.9901194,-123.0262077,37064,Oregon
Hickory,7,35.7344538,-81.3444573,40361,North Carolina
Mount Prospect,-2.5,42.0664167,-87.9372908,54771,Illinois
Atlantic City,-2.2,39.3642834,-74.4229266,39551,New Jersey
Pueblo,5.9,38.2544472,-104.6091409,108249,Colorado
Suffolk,33.5,36.7282054,-76.5835621,85728,Virginia
Coachella,88.4,33.6803003,-116.173894,43092,California
Gilbert,96,33.3528264,-111.789027,229972,Arizona
Montebello,2,34.0165053,-118.1137535,63495,California
Lafayette,14.5,40.4167022,-86.87528689999999,70373,Indiana
Hoboken,35.8,40.7439905,-74.0323626,52575,New Jersey
Carson City,2.9,39.1637984,-119.7674034,54080,Nevada
Washington,13,38.9071923,-77.0368707,646449,District of Columbia
Springfield,1.1,42.1014831,-72.589811,153703,Massachusetts
Pawtucket,-2.5,41.878711,-71.38255579999999,71172,Rhode Island
North Las Vegas,92.2,36.1988592,-115.1175013,226877,Nevada
Malden,7.4,42.4250964,-71.066163,60509,Massachusetts
Chesterfield,1.9,38.6631083,-90.5770675,47749,Missouri
Fresno,18.3,36.7468422,-119.7725868,509924,California
Edina,4.1,44.8896866,-93.3499489,49376,Minnesota
Albuquerque,23.5,35.0853336,-106.6055534,556495,New Mexico
Palm Beach Gardens,39.6,26.8233946,-80.13865469999999,50699,Florida
Huntersville,92.9,35.410694,-80.84285040000002,50458,North Carolina
Burlington,6.1,44.4758825,-73.21207199999999,42284,Vermont
Rancho Palos Verdes,2.9,33.7444613,-118.3870173,42448,California
Owensboro,7.7,37.7719074,-87.1111676,58416,Kentucky
Burleson,85.3,32.5420821,-97.3208492,40714,Texas
Sayreville,9.6,40.45940210000001,-74.360846,44412,New Jersey
Bowie,8.6,39.0067768,-76.77913649999999,56759,Maryland
Indio,66,33.7205771,-116.2155619,83539,California
Oakley,47.7,37.9974219,-121.7124536,38194,California
Lake Charles,3,30.2265949,-93.2173758,74024,Louisiana
Delray Beach,6.1,26.4614625,-80.0728201,64072,Florida
Cedar Rapids,5.4,41.9778795,-91.6656232,128429,Iowa
Rowlett,28.6,32.9029017,-96.56388,58043,Texas
Boise City,9.5,43.6187102,-116.2146068,214237,Idaho
Athens-Clarke County,19,33.9519347,-83.357567,119980,Georgia
Concord,2.9,37.9779776,-122.0310733,125880,California
Wilmington,-1.6,39.7390721,-75.5397878,71525,Delaware
Davenport,3.9,41.5236437,-90.5776367,102157,Iowa
Missoula,19.7,46.87871759999999,-113.996586,69122,Montana
St. George,53.1,37.0965278,-113.5684164,76817,Utah
Apple Valley,29.9,34.5008311,-117.1858759,70924,California
Clovis,21.3,34.4047987,-103.2052272,39508,New Mexico
Flint,-20,43.0125274,-83.6874562,99763,Michigan
Sumter,1.3,33.9204354,-80.3414693,41190,South Carolina
North Lauderdale,10.8,26.217305,-80.2258811,42757,Florida
Biloxi,-11.5,30.3960318,-88.88530779999999,44820,Mississippi
Lancaster,4.5,40.0378755,-76.3055144,59325,Pennsylvania
Fontana,38.3,34.0922335,-117.435048,203003,California
Coral Gables,16.1,25.72149,-80.2683838,49631,Florida
Norwalk,5.6,41.11774399999999,-73.4081575,87776,Connecticut
Valdosta,22.3,30.8327022,-83.2784851,56481,Georgia
Lakewood,2.1,33.8536269,-118.1339563,81121,California
San Francisco,7.7,37.7749295,-122.4194155,837442,California
Pasadena,3.8,34.1477849,-118.1445155,139731,California
Bridgeport,5.4,41.1865478,-73.19517669999999,147216,Connecticut
Huntington Beach,3.9,33.660297,-117.9992265,197575,California
Phoenix,14,33.4483771,-112.0740373,1513367,Arizona
Portland,3.2,43.66147100000001,-70.2553259,66318,Maine
Freeport,-1.4,40.6576022,-73.58318349999999,43167,New York
Logan,14.5,41.7369803,-111.8338359,48913,Utah
Salinas,8.4,36.6777372,-121.6555013,155662,California
Wichita Falls,0.7,33.9137085,-98.4933873,104898,Texas
White Plains,8.5,41.03398620000001,-73.7629097,57866,New York
St. Charles,11.3,38.7881062,-90.4974359,67569,Missouri
Texarkana,7.4,33.425125,-94.04768820000001,37442,Texas
Olympia,12.1,47.0378741,-122.9006951,48338,Washington
Detroit,-27.1,42.331427,-83.0457538,688701,Michigan
Troy,1.5,42.7284117,-73.69178509999999,49974,New York
Everett,9.4,47.9789848,-122.2020794,105370,Washington
Battle Creek,-2.8,42.3211522,-85.17971419999999,51848,Michigan
Fairfield,12.8,38.24935809999999,-122.0399663,109320,California
Peoria,46.5,33.5805955,-112.2373779,162592,Arizona
Columbia,34,38.9517053,-92.3340724,115276,Missouri
Highland,21,34.1283442,-117.2086513,54291,California
Mission,74.5,26.2159066,-98.32529319999999,81050,Texas
Tracy,45.9,37.7396513,-121.4252227,84691,California
Westminster,3.9,33.7513419,-117.9939921,91739,California
Monroe,-6.1,32.5093109,-92.1193012,49761,Louisiana
Utica,2.2,43.100903,-75.232664,61808,New York
Beaumont,254.5,33.9294606,-116.977248,40481,California
Kalamazoo,-1.9,42.2917069,-85.5872286,75548,Michigan
Culver City,1.3,34.0211224,-118.3964665,39428,California
San Clemente,28.6,33.4269728,-117.6119925,65040,California
State College,8.7,40.7933949,-77.8600012,41757,Pennsylvania
Fitchburg,3.5,42.5834228,-71.8022955,40383,Massachusetts
Brentwood,122.3,37.931868,-121.6957863,55000,California
Ankeny,86.9,41.7317884,-93.6001278,51567,Iowa
Macon,-7.3,32.8406946,-83.6324022,89981,Georgia
Southfield,-6.7,42.4733688,-83.2218731,73006,Michigan
Burien,56.7,47.4703767,-122.3467918,49858,Washington
Harlingen,11.6,26.1906306,-97.69610259999999,65665,Texas
Summerville,62.9,33.0185039,-80.17564809999999,46074,South Carolina
Brockton,-0.3,42.0834335,-71.0183787,94089,Massachusetts
Tulsa,1.3,36.1539816,-95.99277500000001,398121,Oklahoma
Goose Creek,26.1,32.9810059,-80.03258670000001,39823,South Carolina
Burnsville,1.9,44.7677424,-93.27772259999999,61434,Minnesota
Taunton,0,41.900101,-71.0897674,56069,Massachusetts
Melbourne,5.9,28.0836269,-80.60810889999999,77508,Florida
Lancaster,33.8,34.6867846,-118.1541632,159523,California
Columbus,8.7,32.4609764,-84.9877094,202824,Georgia
Gulfport,-0.6,30.3674198,-89.0928155,71012,Mississippi
Oak Lawn,3.3,41.719978,-87.7479528,57073,Illinois
Redding,11.9,40.5865396,-122.3916754,91119,California
Fountain Valley,3,33.7091847,-117.9536697,56707,California
Brownsville,26.8,25.9017472,-97.4974838,181860,Texas
York,6.4,39.9625984,-76.727745,43935,Pennsylvania
Bedford,2.9,32.844017,-97.1430671,48592,Texas
Sammamish,44.1,47.61626829999999,-122.0355736,50169,Washington
San Buenaventura (Ventura),7.4,34.274646,-119.2290316,108817,California
Hemet,37.6,33.7475203,-116.9719684,81750,California
Berwyn,5.1,41.85058739999999,-87.7936685,56758,Illinois
Redlands,9.4,34.0555693,-117.1825381,69999,California
Wichita,9.7,37.688889,-97.336111,386552,Kansas
Murrieta,107.4,33.5539143,-117.2139232,107479,California
West Palm Beach,23.5,26.7153424,-80.0533746,102436,Florida
Carson,2.9,33.8316745,-118.281693,92599,California
Wilson,10.1,35.7212689,-77.9155395,49628,North Carolina
Manchester,2.9,42.9956397,-71.4547891,110378,New Hampshire
Antioch,16.9,38.0049214,-121.805789,107100,California
Apopka,63.9,28.6934076,-81.5322149,45587,Florida
Vancouver,14.2,45.6387281,-122.6614861,167405,Washington
Des Moines,3.9,41.6005448,-93.6091064,207510,Iowa
Woburn,4.4,42.4792618,-71.1522765,39083,Massachusetts
Oakland Park,2.7,26.1723065,-80.1319893,43286,Florida
Roy,13.3,41.1616108,-112.0263313,37733,Utah
Nampa,57.9,43.5407172,-116.5634624,86518,Idaho
Denver,16.7,39.7392358,-104.990251,649495,Colorado
Roswell,7.5,33.3942655,-104.5230242,48611,New Mexico
Mansfield,-10.1,40.75839,-82.5154471,46454,Ohio
Columbia,11.7,34.0007104,-81.0348144,133358,South Carolina
Dublin,70,37.7021521,-121.9357918,52105,California
New Brunswick,15.5,40.4862157,-74.4518188,55831,New Jersey
Bellingham,21.8,48.74908,-122.4781473,82631,Washington
Houston,11,29.7604267,-95.3698028,2195914,Texas
Rocky Mount,-3.1,35.9382103,-77.7905339,56954,North Carolina
Attleboro,4.6,41.94454409999999,-71.2856082,43886,Massachusetts
Lawrence,12.7,38.9716689,-95.2352501,90811,Kansas
South Gate,-0.8,33.954737,-118.2120161,95677,California
Cerritos,-3.6,33.8583483,-118.0647871,49707,California
O'Fallon,62.6,38.8106075,-90.69984769999999,82809,Missouri
New Haven,5.5,41.308274,-72.9278835,130660,Connecticut
Lakeland,18.3,28.0394654,-81.9498042,100710,Florida
Walnut Creek,3.5,37.9100783,-122.0651819,66900,California
Palm Desert,13.2,33.7222445,-116.3744556,50508,California
Longmont,24.4,40.1672068,-105.1019275,89919,Colorado
Hammond,-4.6,41.5833688,-87.5000412,78967,Indiana
Bloomington,16.1,39.165325,-86.52638569999999,82575,Indiana
Monrovia,0.2,34.1442616,-118.0019482,37101,California
Deerfield Beach,4.8,26.3184123,-80.09976569999999,78041,Florida
Hampton,-6.6,37.0298687,-76.34522179999999,136699,Virginia
Berkeley,13.3,37.8715926,-122.272747,116768,California
Ormond Beach,5.8,29.2858129,-81.0558894,38661,Florida
Commerce City,135.4,39.8083196,-104.9338675,49799,Colorado
Hempstead,4,40.7062128,-73.6187397,55361,New York
Springdale,57.1,36.18674420000001,-94.1288141,75229,Arkansas
Chelsea,7.3,42.3917638,-71.0328284,37670,Massachusetts
Mankato,24.7,44.1635775,-93.99939959999999,40641,Minnesota
Leesburg,66,39.1156615,-77.56360149999999,47673,Virginia
Grand Junction,30.9,39.0638705,-108.5506486,59778,Colorado
Lompoc,5.5,34.6391501,-120.4579409,43509,California
Anaheim,4.7,33.8352932,-117.9145036,345012,California
Aliso Viejo,25.4,33.5676842,-117.7256083,50175,California
Irvine,61.3,33.6839473,-117.7946942,236716,California
Bismarck,20.1,46.8083268,-100.7837392,67034,North Dakota
Renton,88.4,47.48287759999999,-122.2170661,97003,Washington
Lowell,3.4,42.6334247,-71.31617179999999,108861,Massachusetts
Baltimore,-4,39.2903848,-76.6121893,622104,Maryland
Eagan,2.6,44.8041322,-93.1668858,65453,Minnesota
Jeffersonville,53.3,38.2775702,-85.7371847,45929,Indiana
Fall River,-3.7,41.7014912,-71.1550451,88697,Massachusetts
San Leandro,10.3,37.7249296,-122.1560768,87965,California
Corpus Christi,14.1,27.8005828,-97.39638099999999,316381,Texas
Memphis,-5.3,35.1495343,-90.0489801,653450,Tennessee
Las Cruces,37.6,32.3199396,-106.7636538,101324,New Mexico
East Lansing,4.2,42.7369792,-84.48386540000001,48554,Michigan
Marysville,115.7,48.0517637,-122.1770818,63269,Washington
Beloit,2.9,42.5083482,-89.03177649999999,36888,Wisconsin
Fishers,114.8,39.9567548,-86.01335,83891,Indiana
Palo Alto,13.7,37.4418834,-122.1430195,66642,California
Lynwood,2,33.930293,-118.2114603,71371,California
Ceres,34,37.5949316,-120.9577098,46714,California
Temple,27.1,31.0982344,-97.342782,70190,Texas
Lincoln,18,40.8257625,-96.6851982,268738,Nebraska
New York,4.8,40.7127837,-74.0059413,8405837,New York
Palmdale,33.7,34.5794343,-118.1164613,157161,California
La Habra,3.6,33.9319578,-117.9461734,61653,California
Streamwood,10.1,42.0255827,-88.17840849999999,40351,Illinois
Palatine,4.5,42.1103041,-88.03424000000001,69350,Illinois
Castle Rock,153.5,39.3722121,-104.8560902,53063,Colorado
Harrisburg,0.6,40.2731911,-76.8867008,49188,Pennsylvania
Lynn,2.6,42.46676300000001,-70.9494938,91589,Massachusetts
West Valley City,22.2,40.6916132,-112.0010501,133579,Utah
Lake Forest,4.2,33.6469661,-117.689218,79312,California
Plano,22.4,33.0198431,-96.6988856,274409,Texas
Overland Park,19.4,38.9822282,-94.6707917,181260,Kansas
Newport Beach,10.4,33.6189101,-117.9289469,87273,California
Laredo,38.2,27.5305671,-99.48032409999999,248142,Texas
Peachtree Corners,0,33.9698929,-84.2214551,40059,Georgia
Grand Island,16,40.9263957,-98.3420118,50550,Nebraska
Coon Rapids,0.6,45.1732394,-93.30300629999999,62103,Minnesota
Broomfield,50.3,39.9205411,-105.0866504,59471,Colorado
Port St. Lucie,91.7,27.2730492,-80.3582261,171016,Florida
Rockford,-1,42.2711311,-89.0939952,150251,Illinois
Moore,41.5,35.3395079,-97.48670279999999,58414,Oklahoma
Rogers,50.6,36.3320196,-94.1185366,60112,Arkansas
Springfield,-9.8,39.9242266,-83.8088171,59357,Ohio
Pasco,98.5,46.2395793,-119.1005657,67599,Washington
Barnstable Town,-7.1,41.7003208,-70.3002024,44641,Massachusetts
Portsmouth,-4.2,36.8354258,-76.2982742,96205,Virginia
Allen,104,33.1031744,-96.67055030000002,92020,Texas
Tampa,16,27.950575,-82.4571776,352957,Florida
Muncie,-0.7,40.1933767,-85.3863599,70316,Indiana
Albany,4.1,42.6525793,-73.7562317,98424,New York
Delano,31.8,35.7688425,-119.2470536,52403,California
Des Plaines,3.2,42.0333623,-87.88339909999999,58918,Illinois
Pine Bluff,-16.2,34.2284312,-92.00319549999999,46094,Arkansas
Lake Elsinore,96.5,33.6680772,-117.3272615,57525,California
Camden,-3.6,39.9259463,-75.1196199,76903,New Jersey
Fullerton,9.8,33.8703596,-117.9242966,138981,California
Escondido,10.7,33.1192068,-117.086421,148738,California
Burbank,4.2,34.1808392,-118.3089661,104709,California
St. Louis Park,7.3,44.9597376,-93.3702186,47411,Minnesota
Rochester,23.9,44.0121221,-92.4801989,110742,Minnesota
Keller,53.3,32.9341893,-97.229298,42907,Texas
Akron,-8.6,41.0814447,-81.51900529999999,198100,Ohio
Tyler,18.6,32.3512601,-95.30106239999999,100223,Texas
North Charleston,27.4,32.8546197,-79.9748103,104054,South Carolina
Elmhurst,5.7,41.8994744,-87.9403418,45556,Illinois
Palm Springs,7.7,33.8302961,-116.5452921,46281,California
Euclid,-8.4,41.5931049,-81.5267873,48139,Ohio
Conway,46.1,35.0886963,-92.4421011,63816,Arkansas
Dover,16,39.158168,-75.5243682,37366,Delaware
Pembroke Pines,17.4,26.007765,-80.2962555,162329,Florida
Pocatello,5.4,42.8713032,-112.4455344,54350,Idaho
Covington,-4.7,39.0836712,-84.5085536,40956,Kentucky
Prescott Valley,62.9,34.6100243,-112.315721,39791,Arizona
Moline,-1.9,41.5067003,-90.51513419999999,43116,Illinois
El Monte,-0.4,34.0686206,-118.0275667,115708,California
Yuma,16.2,32.6926512,-114.6276916,91923,Arizona
Meridian,127.6,43.6121087,-116.3915131,83596,Idaho
Placentia,11.8,33.8722371,-117.8703363,52206,California
Novato,13.3,38.1074198,-122.5697032,54194,California
Rochester Hills,5.7,42.65836609999999,-83.1499322,72952,Michigan
Abilene,3.6,32.4487364,-99.73314390000002,120099,Texas
Buffalo,-11.3,42.88644679999999,-78.8783689,258959,New York
Killeen,52.1,31.1171194,-97.72779589999999,137147,Texas
Boca Raton,7.5,26.3683064,-80.1289321,89407,Florida
Avondale,111.5,33.4355977,-112.3496021,78822,Arizona
Kearny,2.8,40.7684342,-74.1454214,41664,New Jersey
Pico Rivera,0.4,33.9830688,-118.096735,63771,California
Titusville,7.8,28.6122187,-80.8075537,44206,Florida
Spokane Valley,12.6,47.6732281,-117.2393748,91113,Washington
Rio Rancho,74.4,35.2327544,-106.6630437,91956,New Mexico
Colton,10.8,34.0739016,-117.3136547,53243,California
Amarillo,12.8,35.2219971,-101.8312969,196429,Texas
Port Orange,22.8,29.1383165,-80.9956105,57203,Florida
Warren,-15.2,41.2375569,-80.81841659999999,40768,Ohio
Knoxville,3.9,35.9606384,-83.9207392,183270,Tennessee
Riverton,61.6,40.521893,-111.9391023,40921,Utah
Broken Arrow,28.2,36.060949,-95.7974526,103500,Oklahoma
Leominster,-1.1,42.5250906,-71.759794,41002,Massachusetts
Romeoville,79.5,41.6475306,-88.0895061,39650,Illinois
Pleasanton,15.2,37.6624312,-121.8746789,74110,California
Salt Lake City,5.1,40.7607793,-111.8910474,191180,Utah
New Berlin,3.6,42.9764027,-88.1084224,39834,Wisconsin
Florence,19.8,34.1954331,-79.7625625,37792,South Carolina
Panama City,0.1,30.1588129,-85.6602058,36877,Florida
Boulder,9,40.0149856,-105.2705456,103166,Colorado
Kannapolis,18.6,35.4873613,-80.6217341,44359,North Carolina
Flower Mound,32.5,33.0145673,-97.0969552,68609,Texas
Bartlett,13.1,41.9950276,-88.1856301,41679,Illinois
Lancaster,10.7,39.7136754,-82.5993294,39325,Ohio
Pomona,2.1,34.055103,-117.7499909,151348,California
Paterson,-2.2,40.9167654,-74.17181099999999,145948,New Jersey
Camarillo,14.9,34.2163937,-119.0376023,66086,California
Bowling Green,24.1,36.9685219,-86.4808043,61488,Kentucky
Lincoln Park,-6.7,42.2505943,-83.1785361,37313,Michigan
Santa Cruz,12.5,36.9741171,-122.0307963,62864,California
Bryan,19.3,30.6743643,-96.3699632,78709,Texas
Moreno Valley,40.4,33.9424658,-117.2296717,201175,California
St. Louis,-8.2,38.6270025,-90.19940419999999,318416,Missouri
Ann Arbor,2,42.2808256,-83.7430378,117025,Michigan
Irving,19.1,32.8140177,-96.9488945,228653,Texas
Fort Lauderdale,0.7,26.1224386,-80.13731740000001,172389,Florida
Santa Fe,10.5,35.6869752,-105.937799,69976,New Mexico
Charlottesville,10.5,38.0293059,-78.47667810000002,44349,Virginia
Newton,4.9,42.3370413,-71.20922139999999,87971,Massachusetts
Lynchburg,19.5,37.4137536,-79.14224639999999,78014,Virginia
Goodyear,271,33.4353394,-112.3576567,72864,Arizona
Sanford,42.8,28.8028612,-81.269453,56002,Florida
Sunnyvale,11.9,37.36883,-122.0363496,147559,California
Belleville,1.2,38.5200504,-89.9839935,42895,Illinois
Greeley,23.1,40.4233142,-104.7091322,96539,Colorado
DeSoto,36,32.5896998,-96.8570738,51483,Texas
McAllen,27.6,26.2034071,-98.23001239999999,136639,Texas
Whittier,3.3,33.9791793,-118.032844,86635,California
Sparks,39.4,39.5349112,-119.7526886,93282,Nevada
Petaluma,8.4,38.232417,-122.6366524,59440,California
Vacaville,5.4,38.3565773,-121.9877444,94275,California
Davie,17.7,26.0764783,-80.25211569999999,96830,Florida
Lee's Summit,31.2,38.9108408,-94.3821724,93184,Missouri
Rialto,9.8,34.1064001,-117.3703235,101910,California
Harrisonburg,27.1,38.4495688,-78.8689155,51395,Virginia
Redmond,26,47.6739881,-122.121512,57530,Washington
Thornton,52.9,39.8680412,-104.9719243,127359,Colorado
Carol Stream,-0.2,41.91252859999999,-88.13479269999999,40379,Illinois
Dayton,-13.5,39.7589478,-84.1916069,143355,Ohio
Nashua,0.4,42.7653662,-71.46756599999999,87137,New Hampshire
Cutler Bay,42.9,25.5808323,-80.34685929999999,43328,Florida
Bozeman,41.9,45.6769979,-111.0429339,39860,Montana
Fairfield,1.2,39.3454673,-84.5603187,42635,Ohio
Tamarac,12.9,26.2128609,-80.2497707,63155,Florida
Vineland,9.3,39.4863773,-75.02596369999999,61050,New Jersey
Waukesha,8,43.0116784,-88.2314813,71016,Wisconsin
Concord,47.4,35.4087517,-80.579511,83506,North Carolina
Urbana,10.3,40.1105875,-88.2072697,41752,Illinois
Salem,16.4,44.9428975,-123.0350963,160614,Oregon
Addison,2.6,41.931696,-87.9889556,37385,Illinois
Daytona Beach,-2.3,29.2108147,-81.0228331,62316,Florida
Gastonia,8.2,35.262082,-81.18730049999999,73209,North Carolina
Baldwin Park,0.8,34.0852868,-117.9608978,76635,California
Danbury,11.4,41.394817,-73.4540111,83684,Connecticut
Westfield,3,42.1250929,-72.749538,41301,Massachusetts
Mountain View,10.1,37.3860517,-122.0838511,77846,California
Miami,14.9,25.7616798,-80.1917902,417650,Florida
Victorville,87.6,34.5362184,-117.2927641,121096,California
Taylor,-6.3,42.240872,-83.2696509,61817,Michigan
Livonia,-5.4,42.36837,-83.35270969999999,95208,Michigan
Sandy,1.3,40.5649781,-111.8389726,90231,Utah
Grove City,35.6,39.88145189999999,-83.0929644,37490,Ohio
Rocklin,60.3,38.7907339,-121.2357828,59738,California
Chesapeake,15.1,36.7682088,-76.2874927,230571,Virginia
Winter Garden,142.5,28.5652787,-81.58618469999999,37711,Florida
Caldwell,77.1,43.66293839999999,-116.6873596,48957,Idaho
Northglenn,15.5,39.8961821,-104.9811468,37499,Colorado
Huntington,-5,38.4192496,-82.44515400000002,49177,West Virginia
Orlando,31.2,28.5383355,-81.3792365,255483,Florida
Modesto,7.7,37.63909719999999,-120.9968782,204933,California
Allentown,11.2,40.6084305,-75.4901833,118577,Pennsylvania
Minot,26.6,48.2329668,-101.2922906,46321,North Dakota
Quincy,0.5,39.9356016,-91.4098726,40915,Illinois
Colorado Springs,21.4,38.8338816,-104.8213634,439886,Colorado
Tempe,5.8,33.4255104,-111.9400054,168228,Arizona
Watsonville,12.7,36.910231,-121.7568946,52477,California
La Mesa,6.9,32.7678287,-117.0230839,58642,California
Stamford,7.6,41.0534302,-73.5387341,126456,Connecticut
Jacksonville,14.3,30.3321838,-81.65565099999999,842583,Florida
Eden Prairie,13.3,44.8546856,-93.47078599999999,62603,Minnesota
Midwest City,4.5,35.4495065,-97.3967019,56756,Oklahoma
Beavercreek,19,39.7092262,-84.06326849999999,45712,Ohio
Grand Prairie,43.1,32.7459645,-96.99778459999999,183372,Texas
Jurupa Valley,0,33.9971974,-117.4854802,98030,California
Hawthorne,2.3,33.9164032,-118.3525748,86199,California
Lehi,176.3,40.3916172,-111.8507662,54382,Utah
Brea,15.2,33.9166805,-117.9000604,40963,California
Cranston,1.4,41.7798226,-71.4372796,80566,Rhode Island
Glendale,5.7,33.5386523,-112.1859866,234632,Arizona
Turlock,23.5,37.4946568,-120.8465941,70365,California
Kansas City,5.5,39.0997265,-94.5785667,467007,Missouri
Clearwater,0.1,27.9658533,-82.8001026,109703,Florida
Albany,-0.6,31.5785074,-84.15574099999999,76185,Georgia
Sarasota,1.4,27.3364347,-82.53065269999999,53326,Florida
Baytown,13.1,29.7355047,-94.97742740000001,75418,Texas
Tacoma,4.9,47.2528768,-122.4442906,203446,Washington
Bend,54.3,44.0581728,-121.3153096,81236,Oregon
Tinley Park,16.3,41.5731442,-87.7932939,57282,Illinois
Indianapolis,7.8,39.768403,-86.158068,843393,Indiana
Alpharetta,33.6,34.0753762,-84.2940899,62298,Georgia
Roseville,56.2,38.7521235,-121.2880059,127035,California
North Port,154.6,27.044224,-82.2359254,59212,Florida
San Jose,10.5,37.3382082,-121.8863286,998537,California
La Quinta,59.9,33.6633573,-116.3100095,39331,California
Yonkers,1.8,40.9312099,-73.89874689999999,199766,New York
San Antonio,21,29.4241219,-98.49362819999999,1409019,Texas
Murray,6.6,40.6668916,-111.8879909,48612,Utah
Valley Stream,3.6,40.6642699,-73.70846449999999,37659,New York
Denton,47.1,33.2148412,-97.13306829999999,123099,Texas
San Bruno,5.6,37.6304904,-122.4110835,42443,California
Hilton Head Island,16,32.216316,-80.752608,39412,South Carolina
San Diego,10.5,32.715738,-117.1610838,1355896,California
Royal Oak,-1.7,42.4894801,-83.1446485,58946,Michigan
West Des Moines,29.8,41.5772115,-93.711332,61255,Iowa
North Miami,2,25.8900949,-80.1867138,61007,Florida
Costa Mesa,2.4,33.6411316,-117.9186689,112174,California
Jackson,-6.8,32.2987573,-90.1848103,172638,Mississippi
Euless,15.1,32.8370727,-97.08195409999999,53224,Texas
Edmonds,2.9,47.8106521,-122.3773552,40727,Washington
Spartanburg,-6.2,34.9495672,-81.9320482,37647,South Carolina
Columbus,16.4,39.2014404,-85.9213796,45775,Indiana
Coral Springs,5.7,26.271192,-80.2706044,126604,Florida
Hanover Park,0.6,41.9994722,-88.1450735,38510,Illinois
Wheaton,-3.4,41.8661403,-88.1070127,53648,Illinois
Midland,30.4,31.9973456,-102.0779146,123933,Texas
Bellevue,19.1,47.610377,-122.2006786,133992,Washington
Chattanooga,10.5,35.0456297,-85.3096801,173366,Tennessee
Layton,20.2,41.0602216,-111.9710529,70790,Utah
San Gabriel,0.9,34.09611110000001,-118.1058333,40275,California
Mount Pleasant,53.2,32.8323225,-79.82842579999999,74885,South Carolina
Peabody,7.5,42.5278731,-70.9286609,52044,Massachusetts
Kingsport,16.7,36.548434,-82.5618186,52962,Tennessee
Warner Robins,45.7,32.6130007,-83.624201,72531,Georgia
Jackson,12.9,35.6145169,-88.81394689999999,67685,Tennessee
Anderson,-6.6,40.1053196,-85.6802541,55670,Indiana
Santa Monica,9.6,34.0194543,-118.4911912,92472,California
Dallas,5.6,32.7766642,-96.79698789999999,1257676,Texas
Ocoee,57.9,28.5691677,-81.5439619,39172,Florida
Lubbock,19.6,33.5778631,-101.8551665,239538,Texas
Montclair,12.1,34.0775104,-117.6897776,38027,California
Draper,77.4,40.5246711,-111.8638226,45285,Utah
Buena Park,6.1,33.8675143,-117.9981181,82882,California
Morgan Hill,19.5,37.1305012,-121.6543901,40836,California
Cincinnati,-10.1,39.1031182,-84.5120196,297517,Ohio
Oak Park,-0.8,41.8850317,-87.7845025,52066,Illinois
Greenwood,46,39.6136578,-86.10665259999999,53665,Indiana
Buffalo Grove,-3.4,42.1662831,-87.9631308,41778,Illinois
Folsom,38.6,38.6779591,-121.1760583,73098,California
Grapevine,17.6,32.9342919,-97.0780654,50195,Texas
Meriden,3.7,41.5381535,-72.80704349999999,60456,Connecticut
Troy,2.2,42.6064095,-83.1497751,82821,Michigan
Palm Bay,31.7,28.0344621,-80.5886646,104898,Florida
Shoreline,2.9,47.7556531,-122.3415178,54790,Washington
Phenix City,31.9,32.4709761,-85.0007653,37498,Alabama
Beverly,2,42.5584283,-70.880049,40664,Massachusetts
Glenview,5.2,42.0697509,-87.7878408,45417,Illinois
Oshkosh,5.3,44.0247062,-88.5426136,66778,Wisconsin
Lacey,41.7,47.03426289999999,-122.8231915,44919,Washington
Lawrence,20.5,39.8386516,-86.0252612,47135,Indiana
Largo,5.1,27.9094665,-82.7873244,78409,Florida
Laguna Niguel,2.8,33.5225261,-117.7075526,64652,California
Jonesboro,28.3,35.84229670000001,-90.704279,71551,Arkansas
Maple Grove,27.3,45.0724642,-93.4557877,65415,Minnesota
Concord,4.1,43.2081366,-71.5375718,42419,New Hampshire
Wilmington,24.8,34.2257255,-77.9447102,112067,North Carolina
Cypress,5.3,33.8169599,-118.0372852,49087,California
Lawrence,7.5,42.7070354,-71.1631137,77657,Massachusetts
Norwalk,1.9,33.9022367,-118.081733,106589,California
Long Beach,1.5,33.7700504,-118.1937395,469428,California
Sioux Falls,31.1,43.5445959,-96.73110340000001,164676,South Dakota
Mobile,-1.9,30.6953657,-88.0398912,194899,Alabama
Baton Rouge,0.4,30.4582829,-91.1403196,229426,Louisiana
Bakersfield,48.4,35.3732921,-119.0187125,363630,California
Clovis,42.6,36.8252277,-119.7029194,99769,California
Florissant,-2.8,38.789217,-90.322614,52363,Missouri
Oxnard,18.2,34.1975048,-119.1770516,203007,California
Westland,-4.7,42.32420399999999,-83.400211,82578,Michigan
Westerville,5.7,40.1261743,-82.92906959999999,37530,Ohio
Tigard,17.8,45.4312294,-122.7714861,50444,Oregon
Marana,166.2,32.436381,-111.2224422,38290,Arizona
Lakeville,34.3,44.6496868,-93.24271999999999,58562,Minnesota
Charleston,-4.7,38.3498195,-81.6326234,50821,West Virginia
Sugar Land,29.1,29.6196787,-95.6349463,83860,Texas
Trenton,-1.2,40.2170534,-74.7429384,84349,New Jersey
Sandy Springs,17.4,33.9304352,-84.3733147,99770,Georgia
Kirkland,87.5,47.6814875,-122.2087353,84430,Washington
Provo,10,40.2338438,-111.6585337,116288,Utah
Henderson,51,36.0395247,-114.9817213,270811,Nevada
Oklahoma City,20.2,35.4675602,-97.5164276,610613,Oklahoma
Perris,98.7,33.7825194,-117.2286478,72326,California
West New York,13.3,40.7878788,-74.0143064,52122,New Jersey
Southaven,72.8,34.9889818,-90.0125913,50997,Mississippi
Victoria,7.5,28.8052674,-97.0035982,65098,Texas
Pittsfield,-3.6,42.4500845,-73.2453824,44057,Massachusetts
Ocala,20.8,29.1871986,-82.14009229999999,57468,Florida
Doral,137.6,25.8195424,-80.3553302,50213,Florida
Pittsburgh,-8.3,40.44062479999999,-79.9958864,305841,Pennsylvania
Haverhill,5,42.7762015,-71.0772796,62088,Massachusetts
Orem,8.5,40.2968979,-111.6946475,91648,Utah
Santa Ana,-1.2,33.7455731,-117.8678338,334227,California
Erie,-2.8,42.12922409999999,-80.085059,100671,Pennsylvania
Kettering,-3.1,39.68950359999999,-84.1688274,55870,Ohio
Minnetonka,0.4,44.9211836,-93.4687489,51368,Minnesota
North Miami Beach,3.6,25.9331488,-80.1625463,43250,Florida
East Orange,-7.4,40.767323,-74.2048677,64544,New Jersey
Champaign,18.3,40.1164204,-88.2433829,83424,Illinois
Dublin,37.6,40.0992294,-83.1140771,43607,Ohio
Edinburg,65.1,26.3017374,-98.1633432,80836,Texas
Waukegan,0.5,42.3636331,-87.84479379999999,88826,Illinois
Smyrna,20,33.8839926,-84.51437609999999,53438,Georgia
Twin Falls,31.5,42.5629668,-114.4608711,45981,Idaho
Pflugerville,123.4,30.4393696,-97.62000429999999,53752,Texas
Brentwood,51.9,36.0331164,-86.78277720000001,40021,Tennessee
Littleton,9.4,39.613321,-105.0166498,44275,Colorado
Los Angeles,4.8,34.0522342,-118.2436849,3884307,California
Atlanta,6.2,33.7489954,-84.3879824,447841,Georgia
Richland,34.6,46.2856907,-119.2844621,52413,Washington
Independence,3.2,39.0911161,-94.41550679999999,117240,Missouri
Fargo,24.9,46.8771863,-96.7898034,113658,North Dakota
Decatur,-8.7,39.8403147,-88.9548001,74710,Illinois
Eau Claire,8.7,44.811349,-91.4984941,67545,Wisconsin
Spokane,7,47.6587802,-117.4260466,210721,Washington
Kent,54.3,47.3809335,-122.2348431,124435,Washington
Minneapolis,4.5,44.977753,-93.2650108,400070,Minnesota
Durham,29.9,35.9940329,-78.898619,245475,North Carolina
Rockville,34,39.0839973,-77.1527578,64072,Maryland
Fort Collins,26.6,40.5852602,-105.084423,152061,Colorado
Alexandria,4.1,31.3112936,-92.4451371,48426,Louisiana
Scottsdale,11,33.4941704,-111.9260519,226918,Arizona
St. Petersburg,0.3,27.773056,-82.64,249688,Florida
Kissimmee,32.6,28.2919557,-81.40757099999999,65173,Florida
Missouri City,31.1,29.6185669,-95.5377215,70185,Texas
Pensacola,-6,30.42130899999999,-87.2169149,52703,Florida
Cheyenne,16.9,41.1399814,-104.8202462,62448,Wyoming
Mission Viejo,2.9,33.6000232,-117.6719953,96346,California
Niagara Falls,-10.8,43.0962143,-79.0377388,49468,New York
St. Cloud,10.9,45.5579451,-94.16324039999999,66297,Minnesota
Canton,-10.3,40.79894729999999,-81.378447,72535,Ohio
Greenfield,4.8,42.9614039,-88.0125865,37159,Wisconsin
Loveland,37.4,40.3977612,-105.0749801,71334,Colorado
Napa,8.4,38.2975381,-122.286865,79068,California
Carlsbad,39.7,33.1580933,-117.3505939,110972,California
Lansing,-4.4,42.732535,-84.5555347,113972,Michigan
Bonita Springs,43.8,26.339806,-81.7786972,47547,Florida
Dearborn,-2,42.3222599,-83.17631449999999,95884,Michigan
Stillwater,20.1,36.1156071,-97.0583681,47186,Oklahoma
Roanoke,3.8,37.2709704,-79.9414266,98465,Virginia
Clarksville,36.9,36.5297706,-87.3594528,142357,Tennessee
Fort Wayne,1,41.079273,-85.1393513,256496,Indiana
Visalia,33.6,36.3302284,-119.2920585,127763,California
Birmingham,-12.3,33.5206608,-86.80248999999999,212113,Alabama
Rancho Santa Margarita,4.6,33.640855,-117.603104,49228,California
Weston,34.5,26.1003654,-80.3997748,68388,Florida
Parker,96.4,39.5186002,-104.7613633,48608,Colorado
Plymouth,12,45.0105194,-93.4555093,73987,Minnesota
Waterloo,-0.5,42.492786,-92.34257749999999,68366,Iowa
Apple Valley,9.2,44.7319094,-93.21772000000001,50201,Minnesota
Nashville-Davidson,16.2,36.1626638,-86.7816016,634464,Tennessee
McKinney,165.3,33.1972465,-96.6397822,148559,Texas
Marietta,-3.8,33.95260200000001,-84.5499327,59089,Georgia
Alexandria,15,38.8048355,-77.0469214,148892,Virginia
Rock Hill,36,34.9248667,-81.02507840000001,69103,South Carolina
Murfreesboro,65.1,35.8456213,-86.39027,117044,Tennessee
Greenville,8.2,34.85261759999999,-82.3940104,61397,South Carolina
Shakopee,85.7,44.7973962,-93.5272861,39167,Minnesota
Louisville/Jefferson County,10,38.2526647,-85.7584557,609893,Kentucky
Raleigh,48.7,35.7795897,-78.6381787,431746,North Carolina
Bountiful,3.9,40.8893895,-111.880771,43023,Utah
Frederick,25.9,39.41426879999999,-77.4105409,66893,Maryland
Little Rock,7.6,34.7464809,-92.28959479999999,197357,Arkansas
Cleveland Heights,-10.3,41.5200518,-81.556235,45394,Ohio
Rosemead,1.7,34.0805651,-118.072846,54561,California
Duncanville,9.7,32.6518004,-96.9083366,39605,Texas
Chino,15.6,34.0122346,-117.688944,80988,California
Portland,15,45.5230622,-122.6764816,609456,Oregon
El Centro,13.7,32.792,-115.5630514,43363,California
Inglewood,-1,33.9616801,-118.3531311,111542,California
Carrollton,14.9,32.9756415,-96.8899636,126700,Texas
Johnson City,16.2,36.3134397,-82.3534727,65123,Tennessee
Madera,44.4,36.9613356,-120.0607176,63105,California
Fond du Lac,1.7,43.7730448,-88.4470508,42970,Wisconsin
Moorhead,21.3,46.8737648,-96.76780389999999,39398,Minnesota
Middletown,-5.7,39.5150576,-84.39827629999999,48630,Ohio
Carpentersville,22.8,42.1211364,-88.2578582,38241,Illinois
Tuscaloosa,21.1,33.2098407,-87.56917349999999,95334,Alabama
Hoover,32.7,33.4053867,-86.8113781,84126,Alabama
Plainfield,203.6,41.632223,-88.2120315,41734,Illinois
San Bernardino,13,34.1083449,-117.2897652,213708,California
Norfolk,5,36.8507689,-76.28587259999999,246139,Virginia
Cicero,-1.6,41.8455877,-87.7539448,84103,Illinois
Round Rock,81,30.5082551,-97.678896,109821,Texas
Manassas,19.5,38.7509488,-77.47526669999999,41705,Virginia
Kenner,-4.8,29.9940924,-90.2417434,66975,Louisiana
Seattle,15.6,47.6062095,-122.3320708,652405,Washington
Pontiac,-11.4,42.6389216,-83.29104679999999,59887,Michigan
DeKalb,11.8,41.9294736,-88.75036469999999,43849,Illinois
Port Arthur,-6,29.8849504,-93.93994699999999,54135,Texas
Albany,25.5,44.6365107,-123.1059282,51583,Oregon
Cedar Park,134.3,30.505198,-97.8202888,61238,Texas
Holyoke,0.9,42.2042586,-72.6162009,40249,Massachusetts
Citrus Heights,-0.1,38.7071247,-121.2810611,85285,California
Austin,31.7,30.267153,-97.7430608,885400,Texas
Beaverton,17,45.48706199999999,-122.8037102,93542,Oregon
Lafayette,11,30.2240897,-92.0198427,124276,Louisiana
Huntsville,16.3,34.7303688,-86.5861037,186254,Alabama
Mount Vernon,-0.2,40.9125992,-73.8370786,68224,New York
San Rafael,5,37.9735346,-122.5310874,58994,California
Weslaco,28.8,26.1595194,-97.9908366,37093,Texas
Lombard,2.9,41.8800296,-88.00784349999999,43907,Illinois
Jersey City,7.2,40.72815749999999,-74.0776417,257342,New Jersey
Greenacres,35.5,26.6276276,-80.1353896,38696,Florida
Bremerton,4.9,47.5673202,-122.6329356,39056,Washington
Danville,-11,36.5859718,-79.39502279999999,42907,Virginia
Bayonne,5.1,40.6687141,-74.1143091,65028,New Jersey
Santa Clara,17.4,37.3541079,-121.9552356,120245,California
Glendale,0.3,34.1425078,-118.255075,196021,California
Madison,15.8,43.0730517,-89.4012302,243344,Wisconsin
Gilroy,23.9,37.0057816,-121.5682751,51701,California
Dubuque,0.9,42.5005583,-90.66457179999999,58253,Iowa
New Orleans,-21.6,29.95106579999999,-90.0715323,378715,Louisiana
Salem,5.1,42.51954,-70.8967155,42544,Massachusetts
Enid,8.1,36.3955891,-97.8783911,50725,Oklahoma
Ogden,8.6,41.223,-111.9738304,84249,Utah
Coconut Creek,28.4,26.2517482,-80.17893509999999,56792,Florida
Margate,2.7,26.2445263,-80.206436,55456,Florida
Torrance,6.6,33.8358492,-118.3406288,147478,California
Strongsville,1.9,41.3144966,-81.83569,44730,Ohio
Rockwall,117.2,32.93123360000001,-96.4597089,40922,Texas
San Marcos,48.5,29.8832749,-97.9413941,54076,Texas
Union City,7.4,37.5933918,-122.0438298,72528,California
Toledo,-10,41.6639383,-83.55521200000001,282313,Ohio
Stanton,2.8,33.8025155,-117.9931165,38623,California
Temecula,55.4,33.4936391,-117.1483648,106780,California
Spanish Fork,78.1,40.114955,-111.654923,36956,Utah
Jacksonville,5,34.7540524,-77.4302414,69079,North Carolina
Puyallup,11.8,47.1853785,-122.2928974,38609,Washington
Virginia Beach,5.1,36.8529263,-75.97798499999999,448479,Virginia
Farmington,18.1,36.72805830000001,-108.2186856,45426,New Mexico
West Allis,-0.6,43.0166806,-88.0070315,60697,Wisconsin
Rancho Cordova,26.4,38.5890723,-121.302728,67911,California
Revere,13.4,42.4084302,-71.0119948,53756,Massachusetts
Wheeling,4.8,42.1391927,-87.9289591,38015,Illinois
Franklin,48.5,35.9250637,-86.8688899,68886,Tennessee
Iowa City,13.8,41.6611277,-91.5301683,71591,Iowa
Wellington,55,26.6617635,-80.2683571,60202,Florida
Marlborough,7.6,42.3459271,-71.5522874,39414,Massachusetts
Pharr,55.7,26.1947962,-98.1836216,73790,Texas
Kokomo,21.3,40.486427,-86.13360329999999,56895,Indiana
Kenosha,9.5,42.5847425,-87.82118539999999,99889,Wisconsin
Elk Grove,97.1,38.4087993,-121.3716178,161007,California
San Marcos,60,33.1433723,-117.1661449,89387,California
Wausau,1.7,44.9591352,-89.6301221,39309,Wisconsin
Haltom City,11.4,32.7995738,-97.26918169999999,43580,Texas
Gaithersburg,24.2,39.1434406,-77.2013705,65690,Maryland
Brookhaven,0,33.8651033,-84.3365917,50603,Georgia
Quincy,5.8,42.2528772,-71.0022705,93494,Massachusetts
Paramount,-0.7,33.8894598,-118.1597911,54980,California
Glendora,3.1,34.1361187,-117.865339,51074,California
Chicago,-6.1,41.8781136,-87.6297982,2718782,Illinois
Omaha,5.9,41.2523634,-95.99798829999999,434353,Nebraska
Chicopee,1.7,42.1487043,-72.6078672,55717,Massachusetts
Poway,2.4,32.9628232,-117.0358646,49417,California
Kentwood,10.5,42.8694731,-85.64474919999999,50233,Michigan
Waterbury,2.2,41.5581525,-73.0514965,109676,Connecticut
South Bend,-6.8,41.6763545,-86.25198979999999,100886,Indiana
Auburn,34.9,47.30732279999999,-122.2284532,74860,Washington
Martinez,3.4,38.0193657,-122.1341321,37165,California
Appleton,4.5,44.2619309,-88.41538469999999,73596,Wisconsin
Cleveland,14.1,35.1595182,-84.8766115,42774,Tennessee
Olathe,40.4,38.8813958,-94.81912849999999,131885,Kansas
Dunwoody,0,33.9462125,-84.3346473,47591,Georgia
Muskegon,-7.1,43.2341813,-86.24839209999999,37213,Michigan
Bellflower,6.3,33.8816818,-118.1170117,77593,California
New Rochelle,9.9,40.9114882,-73.7823549,79446,New York
Maricopa,2503.4,33.0581063,-112.0476423,45508,Arizona
Fort Myers,31.2,26.640628,-81.8723084,68190,Florida
Calexico,44,32.6789476,-115.4988834,39389,California
Parma,-5.9,41.4047742,-81.7229086,80429,Ohio
Everett,12.1,42.40843,-71.0536625,42935,Massachusetts
Georgetown,91.9,30.6332618,-97.6779842,54898,Texas
Madison,53.7,34.6992579,-86.74833180000002,45799,Alabama
Boston,9.4,42.3600825,-71.0588801,645966,Massachusetts
Hoffman Estates,5.4,42.0629915,-88.12271989999999,52398,Illinois
Cedar Hill,42.4,32.5884689,-96.9561152,46663,Texas
Diamond Bar,0.1,34.0286226,-117.8103367,56449,California
Kansas City,1.1,39.114053,-94.6274636,148483,Kansas
Muskogee,-0.7,35.7478769,-95.3696909,38863,Oklahoma
Menifee,95,33.6971468,-117.185294,83447,California
Findlay,5.8,41.04422,-83.6499321,41512,Ohio
Santee,5.7,32.8383828,-116.9739167,56105,California
Bloomington,20.1,40.4842027,-88.99368729999999,78902,Illinois
Gainesville,12.8,29.6516344,-82.32482619999999,127488,Florida
Stockton,21.8,37.9577016,-121.2907796,298118,California
Encinitas,5.8,33.0369867,-117.2919818,61588,California
Hallandale Beach,12.4,25.9812024,-80.14837899999999,38632,Florida
Medford,2.7,42.4184296,-71.1061639,57170,Massachusetts
Lauderhill,4.2,26.1403635,-80.2133808,69813,Florida
Hesperia,46.1,34.4263886,-117.3008784,92147,California
Shelton,7.3,41.3164856,-73.0931641,40999,Connecticut
Cleveland,-18.1,41.49932,-81.6943605,390113,Ohio
Fremont,10,37.5482697,-121.9885719,224922,California
Joliet,36.5,41.525031,-88.0817251,147806,Illinois
Mentor,-6.6,41.6661573,-81.339552,46979,Ohio
Flagstaff,29.3,35.1982836,-111.651302,68667,Arizona
Pittsburg,16.6,38.0279762,-121.8846806,66695,California
Sacramento,17.2,38.5815719,-121.4943996,479686,California
Lima,-8.1,40.742551,-84.1052256,38355,Ohio
Plainfield,5.7,40.6337136,-74.4073736,50588,New Jersey
Covina,3.3,34.0900091,-117.8903397,48508,California
Lexington-Fayette,18,38.0405837,-84.5037164,308428,Kentucky
Friendswood,28.6,29.5293998,-95.2010447,37587,Texas
Wyoming,6.5,42.9133602,-85.7053085,74100,Michigan
Evansville,-0.8,37.9715592,-87.5710898,120310,Indiana
Milwaukee,0.3,43.0389025,-87.9064736,599164,Wisconsin
Casa Grande,86,32.8795022,-111.7573521,50111,Arizona
Lakewood,-9.4,41.4819932,-81.7981908,51143,Ohio
Bolingbrook,29.7,41.69864159999999,-88.0683955,73936,Illinois
St. Paul,2.8,44.9537029,-93.0899578,294873,Minnesota
Hollywood,4.8,26.0112014,-80.1494901,146526,Florida
Newark,2.1,40.735657,-74.1723667,278427,New Jersey
Brookfield,-1.9,43.0605671,-88.1064787,37999,Wisconsin
St. Peters,6.5,38.7874699,-90.6298922,54842,Missouri
Apache Junction,15.7,33.4150485,-111.5495777,37130,Arizona
Santa Clarita,15.3,34.3916641,-118.542586,179590,California
Westminster,9.4,39.8366528,-105.0372046,110945,Colorado
Roseville,-1,42.4972583,-82.9371409,47555,Michigan
Auburn,26.4,32.6098566,-85.48078249999999,58582,Alabama
Las Vegas,24.5,36.1699412,-115.1398296,603488,Nevada
Shreveport,-0.1,32.5251516,-93.7501789,200327,Louisiana
Orland Park,13.9,41.6303103,-87.85394250000002,58590,Illinois
Joplin,11.2,37.08422710000001,-94.51328099999999,50789,Missouri
Newark,3.1,40.0581205,-82.4012642,47777,Ohio
Eastvale,0,33.952463,-117.5848025,55191,California
Bradenton,3.4,27.4989278,-82.5748194,51763,Florida
Santa Barbara,0.9,34.4208305,-119.6981901,90412,California
League City,98.3,29.5074538,-95.0949303,90983,Texas
San Luis Obispo,4.4,35.2827524,-120.6596156,46377,California
East Providence,-3.3,41.8137116,-71.3700545,47149,Rhode Island
