[
    {
        "type": "Feature",
        "properties": {
            "Name": "Abu",
            "Country": "Honshu-Japan",
            "Altitude": "641",
            "Type": "Shield volcanoes"
        },
        "geometry": {
            "type": "Point",
            "coordinates": [
                131.6,
                34.5
            ]
        }
    },
    {
        "type": "Feature",
        "properties": {
            "Name": "Acamarachi",
            "Country": "Chile-N",
            "Altitude": "6046",
            "Type": "Stratovolcano"
        },
        "geometry": {
            "type": "Point",
            "coordinates": [
                -67.62,
                -23.3
            ]
        }
    },
    {
        "type": "Feature",
        "properties": {
            "Name": "Acatenango",
            "Country": "Guatemala",
            "Altitude": "3976",
            "Type": "Stratovolcano"
        },
        "geometry": {
            "type": "Point",
            "coordinates": [
                -90.88,
                14.5
            ]
        }
    },
    {
        "type": "Feature",
        "properties": {
            "Name": "Acigol-Nevsehir",
            "Country": "Turkey",
            "Altitude": "1689",
            "Type": "Caldera"
        },
        "geometry": {
            "type": "Point",
            "coordinates": [
                34.52,
                38.57
            ]
        }
    },
    {
        "type": "Feature",
        "properties": {
            "Name": "Adams",
            "Country": "US-Washington",
            "Altitude": "3742",
            "Type": "Stratovolcano"
        },
        "geometry": {
            "type": "Point",
            "coordinates": [
                -121.49,
                46.21
            ]
        }
    },
    {
        "type": "Feature",
        "properties": {
            "Name": "Adams Seamount",
            "Country": "Pacific-C",
            "Altitude": "-39",
            "Type": "Submarine volcano"
        },
        "geometry": {
            "type": "Point",
            "coordinates": [
                -129.27,
                -25.37
            ]
        }
    },
    {
        "type": "Feature",
        "properties": {
            "Name": "Adatara",
            "Country": "Honshu-Japan",
            "Altitude": "1718",
            "Type": "Stratovolcanoes"
        },
        "geometry": {
            "type": "Point",
            "coordinates": [
                140.29,
                37.64
            ]
        }
    },
    {
        "type": "Feature",
        "properties": {
            "Name": "Adwa",
            "Country": "Ethiopia",
            "Altitude": "1733",
            "Type": "Stratovolcano"
        },
        "geometry": {
            "type": "Point",
            "coordinates": [
                40.84,
                10.07
            ]
        }
    },
    {
        "type": "Feature",
        "properties": {
            "Name": "Afder",
            "Country": "Ethiopia",
            "Altitude": "1295",
            "Type": "Stratovolcano"
        },
        "geometry": {
            "type": "Point",
            "coordinates": [
                40.85,
                13.08
            ]
        }
    },
    {
        "type": "Feature",
        "properties": {
            "Name": "Agrigan",
            "Country": "Mariana Is-C Pacific",
            "Altitude": "965",
            "Type": "Stratovolcano"
        },
        "geometry": {
            "type": "Point",
            "coordinates": [
                145.67,
                18.77
            ]
        }
    },
    {
        "type": "Feature",
        "properties": {
            "Name": "Agua",
            "Country": "Guatemala",
            "Altitude": "3760",
            "Type": "Stratovolcano"
        },
        "geometry": {
            "type": "Point",
            "coordinates": [
                -90.74,
                14.47
            ]
        }
    },
    {
        "type": "Feature",
        "properties": {
            "Name": "Agua de Pau",
            "Country": "Azores",
            "Altitude": "947",
            "Type": "Stratovolcano"
        },
        "geometry": {
            "type": "Point",
            "coordinates": [
                -25.47,
                37.77
            ]
        }
    },
    {
        "type": "Feature",
        "properties": {
            "Name": "Aguilera",
            "Country": "Chile-S",
            "Altitude": "2546",
            "Type": "Stratovolcano"
        },
        "geometry": {
            "type": "Point",
            "coordinates": [
                -73.75,
                -50.33
            ]
        }
    },
    {
        "type": "Feature",
        "properties": {
            "Name": "Agung",
            "Country": "Lesser Sunda Is",
            "Altitude": "3142",
            "Type": "Stratovolcano"
        },
        "geometry": {
            "type": "Point",
            "coordinates": [
                115.51,
                -8.34
            ]
        }
    },
    {
        "type": "Feature",
        "properties": {
            "Name": "Ahyi",
            "Country": "Mariana Is-C Pacific",
            "Altitude": "-137",
            "Type": "Submarine volcano"
        },
        "geometry": {
            "type": "Point",
            "coordinates": [
                145.03,
                20.42
            ]
        }
    },
    {
        "type": "Feature",
        "properties": {
            "Name": "Akademia Nauk",
            "Country": "Kamchatka",
            "Altitude": "1180",
            "Type": "Stratovolcanoes"
        },
        "geometry": {
            "type": "Point",
            "coordinates": [
                159.45,
                53.98
            ]
        }
    },
    {
        "type": "Feature",
        "properties": {
            "Name": "Akagi",
            "Country": "Honshu-Japan",
            "Altitude": "1828",
            "Type": "Stratovolcano"
        },
        "geometry": {
            "type": "Point",
            "coordinates": [
                139.2,
                36.56
            ]
        }
    },
    {
        "type": "Feature",
        "properties": {
            "Name": "Akan",
            "Country": "Hokkaido-Japan",
            "Altitude": "1499",
            "Type": "Caldera"
        },
        "geometry": {
            "type": "Point",
            "coordinates": [
                144.01,
                43.38
            ]
        }
    },
    {
        "type": "Feature",
        "properties": {
            "Name": "Akhtang",
            "Country": "Kamchatka",
            "Altitude": "1956",
            "Type": "Shield volcano"
        },
        "geometry": {
            "type": "Point",
            "coordinates": [
                158.65,
                55.43
            ]
        }
    },
    {
        "type": "Feature",
        "properties": {
            "Name": "Akita-Komaga-take",
            "Country": "Honshu-Japan",
            "Altitude": "1637",
            "Type": "Stratovolcanoes"
        },
        "geometry": {
            "type": "Point",
            "coordinates": [
                140.8,
                39.76
            ]
        }
    },
    {
        "type": "Feature",
        "properties": {
            "Name": "Akita-Yake-yama",
            "Country": "Honshu-Japan",
            "Altitude": "1366",
            "Type": "Stratovolcano"
        },
        "geometry": {
            "type": "Point",
            "coordinates": [
                140.76,
                39.96
            ]
        }
    },
    {
        "type": "Feature",
        "properties": {
            "Name": "Akuseki-jima",
            "Country": "Ryukyu Is",
            "Altitude": "584",
            "Type": "Stratovolcanoes"
        },
        "geometry": {
            "type": "Point",
            "coordinates": [
                129.6,
                29.46
            ]
        }
    },
    {
        "type": "Feature",
        "properties": {
            "Name": "Akutan",
            "Country": "Aleutian Is",
            "Altitude": "1303",
            "Type": "Stratovolcano"
        },
        "geometry": {
            "type": "Point",
            "coordinates": [
                -165.99,
                54.13
            ]
        }
    },
    {
        "type": "Feature",
        "properties": {
            "Name": "Alaid",
            "Country": "Kuril Is",
            "Altitude": "2339",
            "Type": "Stratovolcano"
        },
        "geometry": {
            "type": "Point",
            "coordinates": [
                155.55,
                50.86
            ]
        }
    },
    {
        "type": "Feature",
        "properties": {
            "Name": "Alamagan",
            "Country": "Mariana Is-C Pacific",
            "Altitude": "744",
            "Type": "Stratovolcano"
        },
        "geometry": {
            "type": "Point",
            "coordinates": [
                145.83,
                17.6
            ]
        }
    },
    {
        "type": "Feature",
        "properties": {
            "Name": "Alayta",
            "Country": "Ethiopia",
            "Altitude": "1501",
            "Type": "Shield volcano"
        },
        "geometry": {
            "type": "Point",
            "coordinates": [
                40.57,
                12.88
            ]
        }
    },
    {
        "type": "Feature",
        "properties": {
            "Name": "Alban Hills",
            "Country": "Italy",
            "Altitude": "949",
            "Type": "Caldera"
        },
        "geometry": {
            "type": "Point",
            "coordinates": [
                12.7,
                41.73
            ]
        }
    },
    {
        "type": "Feature",
        "properties": {
            "Name": "Alcedo",
            "Country": "Galapagos",
            "Altitude": "1130",
            "Type": "Shield volcano"
        },
        "geometry": {
            "type": "Point",
            "coordinates": [
                -91.12,
                -0.43
            ]
        }
    },
    {
        "type": "Feature",
        "properties": {
            "Name": "Ale Bagu",
            "Country": "Ethiopia",
            "Altitude": "1031",
            "Type": "Stratovolcano"
        },
        "geometry": {
            "type": "Point",
            "coordinates": [
                40.63,
                13.52
            ]
        }
    },
    {
        "type": "Feature",
        "properties": {
            "Name": "Alid",
            "Country": "Ethiopia",
            "Altitude": "904",
            "Type": "Stratovolcano"
        },
        "geometry": {
            "type": "Point",
            "coordinates": [
                39.92,
                14.88
            ]
        }
    },
    {
        "type": "Feature",
        "properties": {
            "Name": "Alligator Lake",
            "Country": "Canada",
            "Altitude": "2217",
            "Type": "Volcanic field"
        },
        "geometry": {
            "type": "Point",
            "coordinates": [
                -135.42,
                60.42
            ]
        }
    },
    {
        "type": "Feature",
        "properties": {
            "Name": "Almolonga",
            "Country": "Guatemala",
            "Altitude": "3197",
            "Type": "Stratovolcano"
        },
        "geometry": {
            "type": "Point",
            "coordinates": [
                -91.48,
                14.82
            ]
        }
    },
    {
        "type": "Feature",
        "properties": {
            "Name": "Alney-Chashakondzha",
            "Country": "Kamchatka",
            "Altitude": "2598",
            "Type": "Stratovolcano"
        },
        "geometry": {
            "type": "Point",
            "coordinates": [
                159.65,
                56.7
            ]
        }
    },
    {
        "type": "Feature",
        "properties": {
            "Name": "Alngey",
            "Country": "Kamchatka",
            "Altitude": "1853",
            "Type": "Stratovolcano"
        },
        "geometry": {
            "type": "Point",
            "coordinates": [
                160.4,
                57.7
            ]
        }
    },
    {
        "type": "Feature",
        "properties": {
            "Name": "Alu",
            "Country": "Ethiopia",
            "Altitude": "429",
            "Type": "Fissure vents"
        },
        "geometry": {
            "type": "Point",
            "coordinates": [
                40.55,
                13.82
            ]
        }
    },
    {
        "type": "Feature",
        "properties": {
            "Name": "Alutu",
            "Country": "Ethiopia",
            "Altitude": "2335",
            "Type": "Stratovolcano"
        },
        "geometry": {
            "type": "Point",
            "coordinates": [
                38.78,
                7.77
            ]
        }
    },
    {
        "type": "Feature",
        "properties": {
            "Name": "Amak",
            "Country": "Aleutian Is",
            "Altitude": "488",
            "Type": "Stratovolcano"
        },
        "geometry": {
            "type": "Point",
            "coordinates": [
                -163.15,
                55.42
            ]
        }
    },
    {
        "type": "Feature",
        "properties": {
            "Name": "Amasing",
            "Country": "Halmahera-Indonesia",
            "Altitude": "1030",
            "Type": "Stratovolcanoes"
        },
        "geometry": {
            "type": "Point",
            "coordinates": [
                127.48,
                -0.53
            ]
        }
    },
    {
        "type": "Feature",
        "properties": {
            "Name": "Ambalatungan Group",
            "Country": "Luzon-Philippines",
            "Altitude": "2329",
            "Type": "Compound volcano"
        },
        "geometry": {
            "type": "Point",
            "coordinates": [
                121.1,
                17.32
            ]
        }
    },
    {
        "type": "Feature",
        "properties": {
            "Name": "Ambang",
            "Country": "Sulawesi-Indonesia",
            "Altitude": "1795",
            "Type": "Complex volcano"
        },
        "geometry": {
            "type": "Point",
            "coordinates": [
                124.42,
                0.75
            ]
        }
    },
    {
        "type": "Feature",
        "properties": {
            "Name": "Ambitle",
            "Country": "New Ireland-SW Pacific",
            "Altitude": "450",
            "Type": "Stratovolcano"
        },
        "geometry": {
            "type": "Point",
            "coordinates": [
                153.65,
                -4.08
            ]
        }
    },
    {
        "type": "Feature",
        "properties": {
            "Name": "Ambre-Bobaomby",
            "Country": "Madagascar",
            "Altitude": "1475",
            "Type": "Volcanic field"
        },
        "geometry": {
            "type": "Point",
            "coordinates": [
                49.15,
                -12.6
            ]
        }
    },
    {
        "type": "Feature",
        "properties": {
            "Name": "Ambrym",
            "Country": "Vanuatu-SW Pacific",
            "Altitude": "1334",
            "Type": "Pyroclastic shield"
        },
        "geometry": {
            "type": "Point",
            "coordinates": [
                168.12,
                -16.25
            ]
        }
    },
    {
        "type": "Feature",
        "properties": {
            "Name": "Amorong",
            "Country": "Luzon-Philippines",
            "Altitude": "376",
            "Type": "Lava domes"
        },
        "geometry": {
            "type": "Point",
            "coordinates": [
                120.81,
                15.83
            ]
        }
    },
    {
        "type": "Feature",
        "properties": {
            "Name": "Amsterdam Island",
            "Country": "Indian O.-S",
            "Altitude": "881",
            "Type": "Stratovolcano"
        },
        "geometry": {
            "type": "Point",
            "coordinates": [
                77.52,
                -37.83
            ]
        }
    },
    {
        "type": "Feature",
        "properties": {
            "Name": "Amukta",
            "Country": "Aleutian Is",
            "Altitude": "1066",
            "Type": "Stratovolcano"
        },
        "geometry": {
            "type": "Point",
            "coordinates": [
                -171.25,
                52.5
            ]
        }
    },
    {
        "type": "Feature",
        "properties": {
            "Name": "Anatahan",
            "Country": "Mariana Is-C Pacific",
            "Altitude": "790",
            "Type": "Stratovolcano"
        },
        "geometry": {
            "type": "Point",
            "coordinates": [
                145.67,
                16.35
            ]
        }
    },
    {
        "type": "Feature",
        "properties": {
            "Name": "Anaun",
            "Country": "Kamchatka",
            "Altitude": "1828",
            "Type": "Stratovolcano"
        },
        "geometry": {
            "type": "Point",
            "coordinates": [
                158.83,
                56.32
            ]
        }
    },
    {
        "type": "Feature",
        "properties": {
            "Name": "Andahua-Orcopampa",
            "Country": "Peru",
            "Altitude": "4713",
            "Type": "Cinder cones"
        },
        "geometry": {
            "type": "Point",
            "coordinates": [
                -72.33,
                -15.42
            ]
        }
    },
    {
        "type": "Feature",
        "properties": {
            "Name": "Andrus",
            "Country": "Antarctica",
            "Altitude": "2978",
            "Type": "Shield volcanoes"
        },
        "geometry": {
            "type": "Point",
            "coordinates": [
                -132.33,
                -75.8
            ]
        }
    },
    {
        "type": "Feature",
        "properties": {
            "Name": "Aneityum",
            "Country": "Vanuatu-SW Pacific",
            "Altitude": "852",
            "Type": "Stratovolcanoes"
        },
        "geometry": {
            "type": "Point",
            "coordinates": [
                169.78,
                -20.2
            ]
        }
    },
    {
        "type": "Feature",
        "properties": {
            "Name": "Aniakchak",
            "Country": "Alaska Peninsula",
            "Altitude": "1341",
            "Type": "Caldera"
        },
        "geometry": {
            "type": "Point",
            "coordinates": [
                -158.17,
                56.88
            ]
        }
    },
    {
        "type": "Feature",
        "properties": {
            "Name": "Ankaizina Field",
            "Country": "Madagascar",
            "Altitude": "2878",
            "Type": "Cinder cones"
        },
        "geometry": {
            "type": "Point",
            "coordinates": [
                48.67,
                -14.3
            ]
        }
    },
    {
        "type": "Feature",
        "properties": {
            "Name": "Ankaratra Field",
            "Country": "Madagascar",
            "Altitude": "2644",
            "Type": "Cinder cones"
        },
        "geometry": {
            "type": "Point",
            "coordinates": [
                47.2,
                -19.4
            ]
        }
    },
    {
        "type": "Feature",
        "properties": {
            "Name": "Antillanca Group",
            "Country": "Chile-C",
            "Altitude": "1990",
            "Type": "Stratovolcanoes"
        },
        "geometry": {
            "type": "Point",
            "coordinates": [
                -72.15,
                -40.77
            ]
        }
    },
    {
        "type": "Feature",
        "properties": {
            "Name": "Antipodes Island",
            "Country": "Pacific-S",
            "Altitude": "402",
            "Type": "Pyroclastic cones"
        },
        "geometry": {
            "type": "Point",
            "coordinates": [
                178.77,
                -49.68
            ]
        }
    },
    {
        "type": "Feature",
        "properties": {
            "Name": "Antisana",
            "Country": "Ecuador",
            "Altitude": "5753",
            "Type": "Stratovolcano"
        },
        "geometry": {
            "type": "Point",
            "coordinates": [
                -78.14,
                -0.48
            ]
        }
    },
    {
        "type": "Feature",
        "properties": {
            "Name": "Antofagasta de la Sierra",
            "Country": "Argentina",
            "Altitude": "4000",
            "Type": "Scoria cones"
        },
        "geometry": {
            "type": "Point",
            "coordinates": [
                -67.5,
                -26.08
            ]
        }
    },
    {
        "type": "Feature",
        "properties": {
            "Name": "Antuco",
            "Country": "Chile-C",
            "Altitude": "2979",
            "Type": "Stratovolcano"
        },
        "geometry": {
            "type": "Point",
            "coordinates": [
                -71.35,
                -37.41
            ]
        }
    },
    {
        "type": "Feature",
        "properties": {
            "Name": "Aoba",
            "Country": "Vanuatu-SW Pacific",
            "Altitude": "1496",
            "Type": "Shield volcano"
        },
        "geometry": {
            "type": "Point",
            "coordinates": [
                167.83,
                -15.4
            ]
        }
    },
    {
        "type": "Feature",
        "properties": {
            "Name": "Aoga-shima",
            "Country": "Izu Is-Japan",
            "Altitude": "423",
            "Type": "Stratovolcano"
        },
        "geometry": {
            "type": "Point",
            "coordinates": [
                139.76,
                32.45
            ]
        }
    },
    {
        "type": "Feature",
        "properties": {
            "Name": "Apagado",
            "Country": "Chile-S",
            "Altitude": "1210",
            "Type": "Pyroclastic cone"
        },
        "geometry": {
            "type": "Point",
            "coordinates": [
                -72.58,
                -41.88
            ]
        }
    },
    {
        "type": "Feature",
        "properties": {
            "Name": "Apaneca Range",
            "Country": "El Salvador",
            "Altitude": "2036",
            "Type": "Stratovolcanoes"
        },
        "geometry": {
            "type": "Point",
            "coordinates": [
                -89.79,
                13.89
            ]
        }
    },
    {
        "type": "Feature",
        "properties": {
            "Name": "Apastepeque Field",
            "Country": "El Salvador",
            "Altitude": "700",
            "Type": "Volcanic field"
        },
        "geometry": {
            "type": "Point",
            "coordinates": [
                -88.77,
                13.72
            ]
        }
    },
    {
        "type": "Feature",
        "properties": {
            "Name": "Apo",
            "Country": "Mindanao-Philippines",
            "Altitude": "2938",
            "Type": "Stratovolcano"
        },
        "geometry": {
            "type": "Point",
            "coordinates": [
                125.27,
                6.99
            ]
        }
    },
    {
        "type": "Feature",
        "properties": {
            "Name": "Apoyeque",
            "Country": "Nicaragua",
            "Altitude": "518",
            "Type": "Pyroclastic shield"
        },
        "geometry": {
            "type": "Point",
            "coordinates": [
                -86.34,
                12.24
            ]
        }
    },
    {
        "type": "Feature",
        "properties": {
            "Name": "Aracar",
            "Country": "Argentina",
            "Altitude": "6082",
            "Type": "Stratovolcano"
        },
        "geometry": {
            "type": "Point",
            "coordinates": [
                -67.77,
                -24.25
            ]
        }
    },
    {
        "type": "Feature",
        "properties": {
            "Name": "Aragats",
            "Country": "Armenia",
            "Altitude": "4095",
            "Type": "Stratovolcano"
        },
        "geometry": {
            "type": "Point",
            "coordinates": [
                44.2,
                40.53
            ]
        }
    },
    {
        "type": "Feature",
        "properties": {
            "Name": "Aramuaca: Laguna",
            "Country": "El Salvador",
            "Altitude": "181",
            "Type": "Maar"
        },
        "geometry": {
            "type": "Point",
            "coordinates": [
                -88.11,
                13.43
            ]
        }
    },
    {
        "type": "Feature",
        "properties": {
            "Name": "Ararat",
            "Country": "Turkey",
            "Altitude": "5165",
            "Type": "Stratovolcano"
        },
        "geometry": {
            "type": "Point",
            "coordinates": [
                44.3,
                39.7
            ]
        }
    },
    {
        "type": "Feature",
        "properties": {
            "Name": "Arayat",
            "Country": "Luzon-Philippines",
            "Altitude": "1026",
            "Type": "Stratovolcano"
        },
        "geometry": {
            "type": "Point",
            "coordinates": [
                120.74,
                15.2
            ]
        }
    },
    {
        "type": "Feature",
        "properties": {
            "Name": "Ardoukoba",
            "Country": "Djibouti",
            "Altitude": "298",
            "Type": "Fissure vents"
        },
        "geometry": {
            "type": "Point",
            "coordinates": [
                42.47,
                11.58
            ]
        }
    },
    {
        "type": "Feature",
        "properties": {
            "Name": "Arenal",
            "Country": "Costa Rica",
            "Altitude": "1670",
            "Type": "Stratovolcano"
        },
        "geometry": {
            "type": "Point",
            "coordinates": [
                -84.7,
                10.46
            ]
        }
    },
    {
        "type": "Feature",
        "properties": {
            "Name": "Arenales",
            "Country": "Chile-S",
            "Altitude": "3437",
            "Type": "Stratovolcano"
        },
        "geometry": {
            "type": "Point",
            "coordinates": [
                -73.48,
                -47.2
            ]
        }
    },
    {
        "type": "Feature",
        "properties": {
            "Name": "Arhab: Harra of",
            "Country": "Arabia-S",
            "Altitude": "3100",
            "Type": "Volcanic field"
        },
        "geometry": {
            "type": "Point",
            "coordinates": [
                44.08,
                15.63
            ]
        }
    },
    {
        "type": "Feature",
        "properties": {
            "Name": "Arjuno-Welirang",
            "Country": "Java",
            "Altitude": "3339",
            "Type": "Stratovolcano"
        },
        "geometry": {
            "type": "Point",
            "coordinates": [
                112.58,
                -7.73
            ]
        }
    },
    {
        "type": "Feature",
        "properties": {
            "Name": "Asacha",
            "Country": "Kamchatka",
            "Altitude": "1910",
            "Type": "Complex volcano"
        },
        "geometry": {
            "type": "Point",
            "coordinates": [
                157.83,
                52.36
            ]
        }
    },
    {
        "type": "Feature",
        "properties": {
            "Name": "Asama",
            "Country": "Honshu-Japan",
            "Altitude": "2568",
            "Type": "Complex volcano"
        },
        "geometry": {
            "type": "Point",
            "coordinates": [
                138.53,
                36.4
            ]
        }
    },
    {
        "type": "Feature",
        "properties": {
            "Name": "Asavyo",
            "Country": "Ethiopia",
            "Altitude": "1200",
            "Type": "Shield volcano"
        },
        "geometry": {
            "type": "Point",
            "coordinates": [
                41.6,
                13.07
            ]
        }
    },
    {
        "type": "Feature",
        "properties": {
            "Name": "Ascension",
            "Country": "Atlantic-C",
            "Altitude": "858",
            "Type": "Stratovolcano"
        },
        "geometry": {
            "type": "Point",
            "coordinates": [
                -14.37,
                -7.95
            ]
        }
    },
    {
        "type": "Feature",
        "properties": {
            "Name": "Askja",
            "Country": "Iceland-NE",
            "Altitude": "1516",
            "Type": "Stratovolcano"
        },
        "geometry": {
            "type": "Point",
            "coordinates": [
                -16.75,
                65.03
            ]
        }
    },
    {
        "type": "Feature",
        "properties": {
            "Name": "Aso",
            "Country": "Kyushu-Japan",
            "Altitude": "1592",
            "Type": "Caldera"
        },
        "geometry": {
            "type": "Point",
            "coordinates": [
                131.11,
                32.88
            ]
        }
    },
    {
        "type": "Feature",
        "properties": {
            "Name": "Assab Volc Field",
            "Country": "Ethiopia",
            "Altitude": "987",
            "Type": "Volcanic field"
        },
        "geometry": {
            "type": "Point",
            "coordinates": [
                42.43,
                12.95
            ]
        }
    },
    {
        "type": "Feature",
        "properties": {
            "Name": "Asuncion",
            "Country": "Mariana Is-C Pacific",
            "Altitude": "857",
            "Type": "Stratovolcano"
        },
        "geometry": {
            "type": "Point",
            "coordinates": [
                145.41,
                19.67
            ]
        }
    },
    {
        "type": "Feature",
        "properties": {
            "Name": "Atacazo",
            "Country": "Ecuador",
            "Altitude": "4463",
            "Type": "Stratovolcano"
        },
        "geometry": {
            "type": "Point",
            "coordinates": [
                -78.62,
                -0.35
            ]
        }
    },
    {
        "type": "Feature",
        "properties": {
            "Name": "Atakor Volc Field",
            "Country": "Africa-N",
            "Altitude": "2918",
            "Type": "Scoria cones"
        },
        "geometry": {
            "type": "Point",
            "coordinates": [
                5.83,
                23.33
            ]
        }
    },
    {
        "type": "Feature",
        "properties": {
            "Name": "Atitlon",
            "Country": "Guatemala",
            "Altitude": "3535",
            "Type": "Stratovolcano"
        },
        "geometry": {
            "type": "Point",
            "coordinates": [
                -91.19,
                14.58
            ]
        }
    },
    {
        "type": "Feature",
        "properties": {
            "Name": "Atka",
            "Country": "Aleutian Is",
            "Altitude": "1533",
            "Type": "Stratovolcanoes"
        },
        "geometry": {
            "type": "Point",
            "coordinates": [
                -174.15,
                52.38
            ]
        }
    },
    {
        "type": "Feature",
        "properties": {
            "Name": "Atlin Volc Field",
            "Country": "Canada",
            "Altitude": "1880",
            "Type": "Cinder cones"
        },
        "geometry": {
            "type": "Point",
            "coordinates": [
                -133.32,
                59.68
            ]
        }
    },
    {
        "type": "Feature",
        "properties": {
            "Name": "Atlixcos: Los",
            "Country": "Mexico",
            "Altitude": "800",
            "Type": "Shield volcano"
        },
        "geometry": {
            "type": "Point",
            "coordinates": [
                -96.53,
                19.81
            ]
        }
    },
    {
        "type": "Feature",
        "properties": {
            "Name": "Atsonupuri",
            "Country": "Kuril Is",
            "Altitude": "1206",
            "Type": "Stratovolcano"
        },
        "geometry": {
            "type": "Point",
            "coordinates": [
                147.14,
                44.81
            ]
        }
    },
    {
        "type": "Feature",
        "properties": {
            "Name": "Atuel: Caldera del",
            "Country": "Argentina",
            "Altitude": "5189",
            "Type": "Caldera"
        },
        "geometry": {
            "type": "Point",
            "coordinates": [
                -70.05,
                -34.65
            ]
        }
    },
    {
        "type": "Feature",
        "properties": {
            "Name": "Auckland Field",
            "Country": "New Zealand",
            "Altitude": "260",
            "Type": "Volcanic field"
        },
        "geometry": {
            "type": "Point",
            "coordinates": [
                174.87,
                -36.9
            ]
        }
    },
    {
        "type": "Feature",
        "properties": {
            "Name": "Augustine",
            "Country": "Alaska-SW",
            "Altitude": "1252",
            "Type": "Lava domes"
        },
        "geometry": {
            "type": "Point",
            "coordinates": [
                -153.43,
                59.36
            ]
        }
    },
    {
        "type": "Feature",
        "properties": {
            "Name": "Auquihuato: Cerro",
            "Country": "Peru",
            "Altitude": "4980",
            "Type": "Cinder cone"
        },
        "geometry": {
            "type": "Point",
            "coordinates": [
                -73.18,
                -15.07
            ]
        }
    },
    {
        "type": "Feature",
        "properties": {
            "Name": "Avachinsky",
            "Country": "Kamchatka",
            "Altitude": "2741",
            "Type": "Stratovolcano"
        },
        "geometry": {
            "type": "Point",
            "coordinates": [
                158.83,
                53.26
            ]
        }
    },
    {
        "type": "Feature",
        "properties": {
            "Name": "Awu",
            "Country": "Sangihe Is-Indonesia",
            "Altitude": "1320",
            "Type": "Stratovolcano"
        },
        "geometry": {
            "type": "Point",
            "coordinates": [
                125.5,
                3.67
            ]
        }
    },
    {
        "type": "Feature",
        "properties": {
            "Name": "Axial Seamount",
            "Country": "Pacific-NE",
            "Altitude": "-1410",
            "Type": "Submarine volcano"
        },
        "geometry": {
            "type": "Point",
            "coordinates": [
                -130.0,
                45.95
            ]
        }
    },
    {
        "type": "Feature",
        "properties": {
            "Name": "Ayelu",
            "Country": "Ethiopia",
            "Altitude": "2145",
            "Type": "Stratovolcano"
        },
        "geometry": {
            "type": "Point",
            "coordinates": [
                40.7,
                10.08
            ]
        }
    },
    {
        "type": "Feature",
        "properties": {
            "Name": "Azas Plateau",
            "Country": "Russia-SE",
            "Altitude": "2765",
            "Type": "Volcanic field"
        },
        "geometry": {
            "type": "Point",
            "coordinates": [
                98.6,
                52.52
            ]
        }
    },
    {
        "type": "Feature",
        "properties": {
            "Name": "Azufral",
            "Country": "Colombia",
            "Altitude": "4070",
            "Type": "Stratovolcano"
        },
        "geometry": {
            "type": "Point",
            "coordinates": [
                -77.68,
                1.08
            ]
        }
    },
    {
        "type": "Feature",
        "properties": {
            "Name": "Azufre: Cerro del",
            "Country": "Chile-N",
            "Altitude": "5846",
            "Type": "Stratovolcano"
        },
        "geometry": {
            "type": "Point",
            "coordinates": [
                -68.24,
                -21.79
            ]
        }
    },
    {
        "type": "Feature",
        "properties": {
            "Name": "Azul: Cerro",
            "Country": "Galapagos",
            "Altitude": "1640",
            "Type": "Shield volcano"
        },
        "geometry": {
            "type": "Point",
            "coordinates": [
                -91.41,
                -0.92
            ]
        }
    },
    {
        "type": "Feature",
        "properties": {
            "Name": "Azul: Cerro",
            "Country": "Chile-C",
            "Altitude": "3788",
            "Type": "Stratovolcano"
        },
        "geometry": {
            "type": "Point",
            "coordinates": [
                -70.76,
                -35.65
            ]
        }
    },
    {
        "type": "Feature",
        "properties": {
            "Name": "Azul: Volcan",
            "Country": "Nicaragua",
            "Altitude": "201",
            "Type": "Cinder cones"
        },
        "geometry": {
            "type": "Point",
            "coordinates": [
                -83.87,
                12.53
            ]
        }
    },
    {
        "type": "Feature",
        "properties": {
            "Name": "Azuma",
            "Country": "Honshu-Japan",
            "Altitude": "2035",
            "Type": "Stratovolcanoes"
        },
        "geometry": {
            "type": "Point",
            "coordinates": [
                140.25,
                37.73
            ]
        }
    },
    {
        "type": "Feature",
        "properties": {
            "Name": "Babuyan Claro",
            "Country": "Luzon-N of",
            "Altitude": "1080",
            "Type": "Stratovolcanoes"
        },
        "geometry": {
            "type": "Point",
            "coordinates": [
                121.94,
                19.52
            ]
        }
    },
    {
        "type": "Feature",
        "properties": {
            "Name": "Bachelor",
            "Country": "US-Oregon",
            "Altitude": "2763",
            "Type": "Stratovolcano"
        },
        "geometry": {
            "type": "Point",
            "coordinates": [
                -121.69,
                43.98
            ]
        }
    },
    {
        "type": "Feature",
        "properties": {
            "Name": "Bagana",
            "Country": "Bougainville-SW Pacific",
            "Altitude": "1750",
            "Type": "Lava cone"
        },
        "geometry": {
            "type": "Point",
            "coordinates": [
                155.2,
                -6.14
            ]
        }
    },
    {
        "type": "Feature",
        "properties": {
            "Name": "Bakening",
            "Country": "Kamchatka",
            "Altitude": "2278",
            "Type": "Stratovolcano"
        },
        "geometry": {
            "type": "Point",
            "coordinates": [
                158.07,
                53.91
            ]
        }
    },
    {
        "type": "Feature",
        "properties": {
            "Name": "Baker",
            "Country": "US-Washington",
            "Altitude": "3285",
            "Type": "Stratovolcanoes"
        },
        "geometry": {
            "type": "Point",
            "coordinates": [
                -121.81,
                48.78
            ]
        }
    },
    {
        "type": "Feature",
        "properties": {
            "Name": "Bal Haf: Harra of",
            "Country": "Arabia-S",
            "Altitude": "233",
            "Type": "Volcanic field"
        },
        "geometry": {
            "type": "Point",
            "coordinates": [
                48.33,
                14.05
            ]
        }
    },
    {
        "type": "Feature",
        "properties": {
            "Name": "Balatukan",
            "Country": "Mindanao-Philippines",
            "Altitude": "2450",
            "Type": "Compound volcano"
        },
        "geometry": {
            "type": "Point",
            "coordinates": [
                124.98,
                8.77
            ]
        }
    },
    {
        "type": "Feature",
        "properties": {
            "Name": "Balbi",
            "Country": "Bougainville-SW Pacific",
            "Altitude": "2715",
            "Type": "Stratovolcano"
        },
        "geometry": {
            "type": "Point",
            "coordinates": [
                154.98,
                -5.92
            ]
        }
    },
    {
        "type": "Feature",
        "properties": {
            "Name": "Bald Knoll",
            "Country": "US-Utah",
            "Altitude": "2135",
            "Type": "Cinder cones"
        },
        "geometry": {
            "type": "Point",
            "coordinates": [
                -112.41,
                37.33
            ]
        }
    },
    {
        "type": "Feature",
        "properties": {
            "Name": "Baluan",
            "Country": "Admiralty Is-SW Pacific",
            "Altitude": "254",
            "Type": "Stratovolcano"
        },
        "geometry": {
            "type": "Point",
            "coordinates": [
                147.28,
                -2.57
            ]
        }
    },
    {
        "type": "Feature",
        "properties": {
            "Name": "Baluran",
            "Country": "Java",
            "Altitude": "1247",
            "Type": "Stratovolcano"
        },
        "geometry": {
            "type": "Point",
            "coordinates": [
                114.37,
                -7.85
            ]
        }
    },
    {
        "type": "Feature",
        "properties": {
            "Name": "Balut",
            "Country": "Mindanao-Philippines",
            "Altitude": "862",
            "Type": "Stratovolcano"
        },
        "geometry": {
            "type": "Point",
            "coordinates": [
                125.38,
                5.4
            ]
        }
    },
    {
        "type": "Feature",
        "properties": {
            "Name": "Bam",
            "Country": "New Guinea-NE of",
            "Altitude": "685",
            "Type": "Stratovolcano"
        },
        "geometry": {
            "type": "Point",
            "coordinates": [
                144.82,
                -3.61
            ]
        }
    },
    {
        "type": "Feature",
        "properties": {
            "Name": "Bamus",
            "Country": "New Britain-SW Pac",
            "Altitude": "2248",
            "Type": "Stratovolcano"
        },
        "geometry": {
            "type": "Point",
            "coordinates": [
                151.23,
                -5.2
            ]
        }
    },
    {
        "type": "Feature",
        "properties": {
            "Name": "Banahaw",
            "Country": "Luzon-Philippines",
            "Altitude": "2158",
            "Type": "Complex volcano"
        },
        "geometry": {
            "type": "Point",
            "coordinates": [
                121.48,
                14.07
            ]
        }
    },
    {
        "type": "Feature",
        "properties": {
            "Name": "Banda Api",
            "Country": "Banda Sea",
            "Altitude": "640",
            "Type": "Caldera"
        },
        "geometry": {
            "type": "Point",
            "coordinates": [
                129.87,
                -4.53
            ]
        }
    },
    {
        "type": "Feature",
        "properties": {
            "Name": "Bandai",
            "Country": "Honshu-Japan",
            "Altitude": "1819",
            "Type": "Stratovolcano"
        },
        "geometry": {
            "type": "Point",
            "coordinates": [
                140.08,
                37.6
            ]
        }
    },
    {
        "type": "Feature",
        "properties": {
            "Name": "Banua Wuhu",
            "Country": "Sangihe Is-Indonesia",
            "Altitude": "-5",
            "Type": "Submarine volcano"
        },
        "geometry": {
            "type": "Point",
            "coordinates": [
                125.49,
                3.14
            ]
        }
    },
    {
        "type": "Feature",
        "properties": {
            "Name": "Baransky",
            "Country": "Kuril Is",
            "Altitude": "1132",
            "Type": "Stratovolcano"
        },
        "geometry": {
            "type": "Point",
            "coordinates": [
                148.02,
                45.1
            ]
        }
    },
    {
        "type": "Feature",
        "properties": {
            "Name": "Borcena",
            "Country": "Mexico-Is",
            "Altitude": "332",
            "Type": "Cinder cones"
        },
        "geometry": {
            "type": "Point",
            "coordinates": [
                -110.82,
                19.3
            ]
        }
    },
    {
        "type": "Feature",
        "properties": {
            "Name": "Bordarbunga",
            "Country": "Iceland-NE",
            "Altitude": "2000",
            "Type": "Stratovolcano"
        },
        "geometry": {
            "type": "Point",
            "coordinates": [
                -17.53,
                64.63
            ]
        }
    },
    {
        "type": "Feature",
        "properties": {
            "Name": "Barkhatnaya Sopka",
            "Country": "Kamchatka",
            "Altitude": "870",
            "Type": "Lava domes"
        },
        "geometry": {
            "type": "Point",
            "coordinates": [
                158.27,
                52.82
            ]
        }
    },
    {
        "type": "Feature",
        "properties": {
            "Name": "Barren Island",
            "Country": "Andaman Is-Indian O",
            "Altitude": "354",
            "Type": "Stratovolcano"
        },
        "geometry": {
            "type": "Point",
            "coordinates": [
                93.86,
                12.28
            ]
        }
    },
    {
        "type": "Feature",
        "properties": {
            "Name": "Barrier: The",
            "Country": "Africa-E",
            "Altitude": "1032",
            "Type": "Shield volcano"
        },
        "geometry": {
            "type": "Point",
            "coordinates": [
                36.57,
                2.32
            ]
        }
    },
    {
        "type": "Feature",
        "properties": {
            "Name": "Bar",
            "Country": "Panama",
            "Altitude": "3474",
            "Type": "Stratovolcano"
        },
        "geometry": {
            "type": "Point",
            "coordinates": [
                -82.54,
                8.81
            ]
        }
    },
    {
        "type": "Feature",
        "properties": {
            "Name": "Barva",
            "Country": "Costa Rica",
            "Altitude": "2906",
            "Type": "Complex volcano"
        },
        "geometry": {
            "type": "Point",
            "coordinates": [
                -84.1,
                10.14
            ]
        }
    },
    {
        "type": "Feature",
        "properties": {
            "Name": "Bas Dong Nai",
            "Country": "SE Asia",
            "Altitude": "392",
            "Type": "Volcanic field"
        },
        "geometry": {
            "type": "Point",
            "coordinates": [
                107.2,
                10.8
            ]
        }
    },
    {
        "type": "Feature",
        "properties": {
            "Name": "Batur",
            "Country": "Lesser Sunda Is",
            "Altitude": "1717",
            "Type": "Caldera"
        },
        "geometry": {
            "type": "Point",
            "coordinates": [
                115.38,
                -8.24
            ]
        }
    },
    {
        "type": "Feature",
        "properties": {
            "Name": "Bayo: Cerro",
            "Country": "Chile-N",
            "Altitude": "5401",
            "Type": "Complex volcano"
        },
        "geometry": {
            "type": "Point",
            "coordinates": [
                -68.58,
                -25.42
            ]
        }
    },
    {
        "type": "Feature",
        "properties": {
            "Name": "Bayonnaise Rocks",
            "Country": "Izu Is-Japan",
            "Altitude": "11",
            "Type": "Submarine volcano"
        },
        "geometry": {
            "type": "Point",
            "coordinates": [
                139.92,
                31.88
            ]
        }
    },
    {
        "type": "Feature",
        "properties": {
            "Name": "Bayuda Volc Field",
            "Country": "Africa-N",
            "Altitude": "670",
            "Type": "Cinder cones"
        },
        "geometry": {
            "type": "Point",
            "coordinates": [
                32.75,
                18.33
            ]
        }
    },
    {
        "type": "Feature",
        "properties": {
            "Name": "Bazman",
            "Country": "Iran",
            "Altitude": "3490",
            "Type": "Stratovolcano"
        },
        "geometry": {
            "type": "Point",
            "coordinates": [
                60.0,
                28.07
            ]
        }
    },
    {
        "type": "Feature",
        "properties": {
            "Name": "Beerenberg",
            "Country": "Atlantic-N-Jan Mayen",
            "Altitude": "2277",
            "Type": "Stratovolcano"
        },
        "geometry": {
            "type": "Point",
            "coordinates": [
                -8.17,
                71.08
            ]
        }
    },
    {
        "type": "Feature",
        "properties": {
            "Name": "Behm Canal-Rudyerd Bay",
            "Country": "Alaska-E",
            "Altitude": "500",
            "Type": "Cinder cones"
        },
        "geometry": {
            "type": "Point",
            "coordinates": [
                -131.05,
                55.32
            ]
        }
    },
    {
        "type": "Feature",
        "properties": {
            "Name": "Belenkaya",
            "Country": "Kamchatka",
            "Altitude": "892",
            "Type": "Stratovolcano"
        },
        "geometry": {
            "type": "Point",
            "coordinates": [
                157.27,
                51.75
            ]
        }
    },
    {
        "type": "Feature",
        "properties": {
            "Name": "Belirang-Beriti",
            "Country": "Sumatra",
            "Altitude": "1958",
            "Type": "Compound volcano"
        },
        "geometry": {
            "type": "Point",
            "coordinates": [
                102.18,
                -2.82
            ]
        }
    },
    {
        "type": "Feature",
        "properties": {
            "Name": "Belknap",
            "Country": "US-Oregon",
            "Altitude": "2095",
            "Type": "Shield volcanoes"
        },
        "geometry": {
            "type": "Point",
            "coordinates": [
                -121.84,
                44.29
            ]
        }
    },
    {
        "type": "Feature",
        "properties": {
            "Name": "Bely",
            "Country": "Kamchatka",
            "Altitude": "2080",
            "Type": "Shield volcanoes"
        },
        "geometry": {
            "type": "Point",
            "coordinates": [
                160.53,
                57.88
            ]
        }
    },
    {
        "type": "Feature",
        "properties": {
            "Name": "Berlin",
            "Country": "Antarctica",
            "Altitude": "3478",
            "Type": "Shield volcanoes"
        },
        "geometry": {
            "type": "Point",
            "coordinates": [
                -136.0,
                -76.05
            ]
        }
    },
    {
        "type": "Feature",
        "properties": {
            "Name": "Beru",
            "Country": "Ethiopia",
            "Altitude": "1100",
            "Type": "Volcanic field"
        },
        "geometry": {
            "type": "Point",
            "coordinates": [
                39.75,
                8.95
            ]
        }
    },
    {
        "type": "Feature",
        "properties": {
            "Name": "Berutarube",
            "Country": "Kuril Is",
            "Altitude": "1221",
            "Type": "Stratovolcano"
        },
        "geometry": {
            "type": "Point",
            "coordinates": [
                146.94,
                44.46
            ]
        }
    },
    {
        "type": "Feature",
        "properties": {
            "Name": "Besar",
            "Country": "Sumatra",
            "Altitude": "1899",
            "Type": "Stratovolcano ?"
        },
        "geometry": {
            "type": "Point",
            "coordinates": [
                103.67,
                -4.43
            ]
        }
    },
    {
        "type": "Feature",
        "properties": {
            "Name": "Bezymianny",
            "Country": "Kamchatka",
            "Altitude": "2882",
            "Type": "Stratovolcano"
        },
        "geometry": {
            "type": "Point",
            "coordinates": [
                160.59,
                55.98
            ]
        }
    },
    {
        "type": "Feature",
        "properties": {
            "Name": "Bibinoi",
            "Country": "Halmahera-Indonesia",
            "Altitude": "900",
            "Type": "Stratovolcanoes"
        },
        "geometry": {
            "type": "Point",
            "coordinates": [
                127.72,
                -0.77
            ]
        }
    },
    {
        "type": "Feature",
        "properties": {
            "Name": "Bilate River Field",
            "Country": "Ethiopia",
            "Altitude": "1700",
            "Type": "Maars"
        },
        "geometry": {
            "type": "Point",
            "coordinates": [
                38.1,
                7.07
            ]
        }
    },
    {
        "type": "Feature",
        "properties": {
            "Name": "Biliran",
            "Country": "Philippines-C",
            "Altitude": "1301",
            "Type": "Compound volcano"
        },
        "geometry": {
            "type": "Point",
            "coordinates": [
                124.54,
                11.52
            ]
        }
    },
    {
        "type": "Feature",
        "properties": {
            "Name": "Billy Mitchell",
            "Country": "Bougainville-SW Pacific",
            "Altitude": "1544",
            "Type": "Pyroclastic shield"
        },
        "geometry": {
            "type": "Point",
            "coordinates": [
                155.23,
                -6.09
            ]
        }
    },
    {
        "type": "Feature",
        "properties": {
            "Name": "Bir Borhut",
            "Country": "Arabia-S",
            "Altitude": "",
            "Type": "Volcanic field"
        },
        "geometry": {
            "type": "Point",
            "coordinates": [
                50.63,
                15.55
            ]
        }
    },
    {
        "type": "Feature",
        "properties": {
            "Name": "Birk: Harrat al",
            "Country": "Arabia-W",
            "Altitude": "381",
            "Type": "Volcanic field"
        },
        "geometry": {
            "type": "Point",
            "coordinates": [
                41.63,
                18.37
            ]
        }
    },
    {
        "type": "Feature",
        "properties": {
            "Name": "Bishoftu Volc Field",
            "Country": "Ethiopia",
            "Altitude": "1850",
            "Type": "Fissure vents"
        },
        "geometry": {
            "type": "Point",
            "coordinates": [
                38.98,
                8.78
            ]
        }
    },
    {
        "type": "Feature",
        "properties": {
            "Name": "Biu Plateau",
            "Country": "Africa-W",
            "Altitude": "",
            "Type": "Volcanic field"
        },
        "geometry": {
            "type": "Point",
            "coordinates": [
                12.0,
                10.75
            ]
        }
    },
    {
        "type": "Feature",
        "properties": {
            "Name": "Black Peak",
            "Country": "Alaska Peninsula",
            "Altitude": "1032",
            "Type": "Stratovolcano"
        },
        "geometry": {
            "type": "Point",
            "coordinates": [
                -158.79,
                56.55
            ]
        }
    },
    {
        "type": "Feature",
        "properties": {
            "Name": "Black Rock Desert",
            "Country": "US-Utah",
            "Altitude": "1800",
            "Type": "Volcanic field"
        },
        "geometry": {
            "type": "Point",
            "coordinates": [
                -112.5,
                38.97
            ]
        }
    },
    {
        "type": "Feature",
        "properties": {
            "Name": "Blancas: Lomas",
            "Country": "Chile-C",
            "Altitude": "2268",
            "Type": "Stratovolcano"
        },
        "geometry": {
            "type": "Point",
            "coordinates": [
                -71.01,
                -36.29
            ]
        }
    },
    {
        "type": "Feature",
        "properties": {
            "Name": "Bliznets",
            "Country": "Kamchatka",
            "Altitude": "1244",
            "Type": "Stratovolcano"
        },
        "geometry": {
            "type": "Point",
            "coordinates": [
                159.78,
                56.97
            ]
        }
    },
    {
        "type": "Feature",
        "properties": {
            "Name": "Bliznetsy",
            "Country": "Kamchatka",
            "Altitude": "265",
            "Type": "Lava cone"
        },
        "geometry": {
            "type": "Point",
            "coordinates": [
                161.37,
                57.35
            ]
        }
    },
    {
        "type": "Feature",
        "properties": {
            "Name": "Blue Lake Crater",
            "Country": "US-Oregon",
            "Altitude": "1230",
            "Type": "Maar"
        },
        "geometry": {
            "type": "Point",
            "coordinates": [
                -121.77,
                44.41
            ]
        }
    },
    {
        "type": "Feature",
        "properties": {
            "Name": "Blup Blup",
            "Country": "New Guinea-NE of",
            "Altitude": "402",
            "Type": "Stratovolcano"
        },
        "geometry": {
            "type": "Point",
            "coordinates": [
                144.61,
                -3.51
            ]
        }
    },
    {
        "type": "Feature",
        "properties": {
            "Name": "Bobrof",
            "Country": "Aleutian Is",
            "Altitude": "738",
            "Type": "Stratovolcano"
        },
        "geometry": {
            "type": "Point",
            "coordinates": [
                -177.44,
                51.91
            ]
        }
    },
    {
        "type": "Feature",
        "properties": {
            "Name": "Bogatyr Ridge",
            "Country": "Kuril Is",
            "Altitude": "1634",
            "Type": "Stratovolcano"
        },
        "geometry": {
            "type": "Point",
            "coordinates": [
                147.34,
                44.83
            ]
        }
    },
    {
        "type": "Feature",
        "properties": {
            "Name": "Bogoslof",
            "Country": "Aleutian Is",
            "Altitude": "150",
            "Type": "Submarine volcano"
        },
        "geometry": {
            "type": "Point",
            "coordinates": [
                -168.03,
                53.93
            ]
        }
    },
    {
        "type": "Feature",
        "properties": {
            "Name": "Boisa",
            "Country": "New Guinea-NE of",
            "Altitude": "240",
            "Type": "Stratovolcano"
        },
        "geometry": {
            "type": "Point",
            "coordinates": [
                144.96,
                -3.99
            ]
        }
    },
    {
        "type": "Feature",
        "properties": {
            "Name": "Bola",
            "Country": "New Britain-SW Pac",
            "Altitude": "1155",
            "Type": "Stratovolcano"
        },
        "geometry": {
            "type": "Point",
            "coordinates": [
                150.03,
                -5.15
            ]
        }
    },
    {
        "type": "Feature",
        "properties": {
            "Name": "Bolshe-Bannaya",
            "Country": "Kamchatka",
            "Altitude": "1200",
            "Type": "Lava domes"
        },
        "geometry": {
            "type": "Point",
            "coordinates": [
                157.78,
                52.9
            ]
        }
    },
    {
        "type": "Feature",
        "properties": {
            "Name": "Bolshoi Payalpan",
            "Country": "Kamchatka",
            "Altitude": "1906",
            "Type": "Shield volcanoes"
        },
        "geometry": {
            "type": "Point",
            "coordinates": [
                157.78,
                55.88
            ]
        }
    },
    {
        "type": "Feature",
        "properties": {
            "Name": "Bolshoi Semiachik",
            "Country": "Kamchatka",
            "Altitude": "1720",
            "Type": "Stratovolcanoes"
        },
        "geometry": {
            "type": "Point",
            "coordinates": [
                160.02,
                54.32
            ]
        }
    },
    {
        "type": "Feature",
        "properties": {
            "Name": "Bolshoi-Kekuknaysky",
            "Country": "Kamchatka",
            "Altitude": "1401",
            "Type": "Shield volcanoes"
        },
        "geometry": {
            "type": "Point",
            "coordinates": [
                157.8,
                56.47
            ]
        }
    },
    {
        "type": "Feature",
        "properties": {
            "Name": "Bombalai",
            "Country": "Borneo",
            "Altitude": "531",
            "Type": "Pyroclastic cone"
        },
        "geometry": {
            "type": "Point",
            "coordinates": [
                117.88,
                4.4
            ]
        }
    },
    {
        "type": "Feature",
        "properties": {
            "Name": "Boomerang Seamount",
            "Country": "Indian O.-S",
            "Altitude": "-650",
            "Type": "Submarine volcano"
        },
        "geometry": {
            "type": "Point",
            "coordinates": [
                77.83,
                -37.72
            ]
        }
    },
    {
        "type": "Feature",
        "properties": {
            "Name": "Bora-Bericcio",
            "Country": "Ethiopia",
            "Altitude": "2285",
            "Type": "Pumice cones"
        },
        "geometry": {
            "type": "Point",
            "coordinates": [
                39.03,
                8.27
            ]
        }
    },
    {
        "type": "Feature",
        "properties": {
            "Name": "Borale Ale",
            "Country": "Ethiopia",
            "Altitude": "668",
            "Type": "Stratovolcano"
        },
        "geometry": {
            "type": "Point",
            "coordinates": [
                40.6,
                13.73
            ]
        }
    },
    {
        "type": "Feature",
        "properties": {
            "Name": "Borawli",
            "Country": "Ethiopia",
            "Altitude": "812",
            "Type": "Stratovolcano"
        },
        "geometry": {
            "type": "Point",
            "coordinates": [
                40.98,
                13.3
            ]
        }
    },
    {
        "type": "Feature",
        "properties": {
            "Name": "Borawli",
            "Country": "Ethiopia",
            "Altitude": "875",
            "Type": "Lava domes"
        },
        "geometry": {
            "type": "Point",
            "coordinates": [
                41.45,
                11.63
            ]
        }
    },
    {
        "type": "Feature",
        "properties": {
            "Name": "Boset-Bericha",
            "Country": "Ethiopia",
            "Altitude": "2447",
            "Type": "Stratovolcanoes"
        },
        "geometry": {
            "type": "Point",
            "coordinates": [
                39.48,
                8.56
            ]
        }
    },
    {
        "type": "Feature",
        "properties": {
            "Name": "Bouvet",
            "Country": "Atlantic-S",
            "Altitude": "780",
            "Type": "Shield volcano"
        },
        "geometry": {
            "type": "Point",
            "coordinates": [
                3.35,
                -54.42
            ]
        }
    },
    {
        "type": "Feature",
        "properties": {
            "Name": "Bratan",
            "Country": "Lesser Sunda Is",
            "Altitude": "2276",
            "Type": "Caldera"
        },
        "geometry": {
            "type": "Point",
            "coordinates": [
                115.13,
                -8.28
            ]
        }
    },
    {
        "type": "Feature",
        "properties": {
            "Name": "Brava",
            "Country": "Cape Verde Is",
            "Altitude": "900",
            "Type": "Stratovolcano"
        },
        "geometry": {
            "type": "Point",
            "coordinates": [
                -24.72,
                14.85
            ]
        }
    },
    {
        "type": "Feature",
        "properties": {
            "Name": "Bravo: Cerro",
            "Country": "Colombia",
            "Altitude": "4000",
            "Type": "Stratovolcano"
        },
        "geometry": {
            "type": "Point",
            "coordinates": [
                -75.3,
                5.09
            ]
        }
    },
    {
        "type": "Feature",
        "properties": {
            "Name": "Brennisteinsfjoll",
            "Country": "Iceland-SW",
            "Altitude": "626",
            "Type": "Crater rows"
        },
        "geometry": {
            "type": "Point",
            "coordinates": [
                -21.83,
                63.92
            ]
        }
    },
    {
        "type": "Feature",
        "properties": {
            "Name": "Bridge River Cones",
            "Country": "Canada",
            "Altitude": "2500",
            "Type": "Volcanic field"
        },
        "geometry": {
            "type": "Point",
            "coordinates": [
                -123.4,
                50.8
            ]
        }
    },
    {
        "type": "Feature",
        "properties": {
            "Name": "Bridgeman Island",
            "Country": "Antarctica",
            "Altitude": "240",
            "Type": "Stratovolcano"
        },
        "geometry": {
            "type": "Point",
            "coordinates": [
                -56.75,
                -62.05
            ]
        }
    },
    {
        "type": "Feature",
        "properties": {
            "Name": "Bristol Island",
            "Country": "Antarctica",
            "Altitude": "1100",
            "Type": "Stratovolcano"
        },
        "geometry": {
            "type": "Point",
            "coordinates": [
                -26.58,
                -59.03
            ]
        }
    },
    {
        "type": "Feature",
        "properties": {
            "Name": "Brothers",
            "Country": "New Zealand",
            "Altitude": "-1350",
            "Type": "Submarine volcano"
        },
        "geometry": {
            "type": "Point",
            "coordinates": [
                179.08,
                -34.88
            ]
        }
    },
    {
        "type": "Feature",
        "properties": {
            "Name": "Brushy Butte",
            "Country": "US-California",
            "Altitude": "1174",
            "Type": "Shield volcano"
        },
        "geometry": {
            "type": "Point",
            "coordinates": [
                -121.44,
                41.18
            ]
        }
    },
    {
        "type": "Feature",
        "properties": {
            "Name": "Buckle Island",
            "Country": "Antarctica",
            "Altitude": "1239",
            "Type": "Stratovolcano"
        },
        "geometry": {
            "type": "Point",
            "coordinates": [
                163.25,
                -66.78
            ]
        }
    },
    {
        "type": "Feature",
        "properties": {
            "Name": "Bufumbira",
            "Country": "Africa-C",
            "Altitude": "2440",
            "Type": "Cinder cones"
        },
        "geometry": {
            "type": "Point",
            "coordinates": [
                29.72,
                -1.23
            ]
        }
    },
    {
        "type": "Feature",
        "properties": {
            "Name": "Buldir",
            "Country": "Aleutian Is",
            "Altitude": "656",
            "Type": "Stratovolcano"
        },
        "geometry": {
            "type": "Point",
            "coordinates": [
                175.91,
                52.35
            ]
        }
    },
    {
        "type": "Feature",
        "properties": {
            "Name": "Bulusan",
            "Country": "Luzon-Philippines",
            "Altitude": "1565",
            "Type": "Stratovolcanoes"
        },
        "geometry": {
            "type": "Point",
            "coordinates": [
                124.05,
                12.77
            ]
        }
    },
    {
        "type": "Feature",
        "properties": {
            "Name": "Bunyaruguru Field",
            "Country": "Africa-C",
            "Altitude": "1554",
            "Type": "Maars"
        },
        "geometry": {
            "type": "Point",
            "coordinates": [
                30.08,
                -0.2
            ]
        }
    },
    {
        "type": "Feature",
        "properties": {
            "Name": "Burney: Monte",
            "Country": "Chile-S",
            "Altitude": "1758",
            "Type": "Stratovolcano"
        },
        "geometry": {
            "type": "Point",
            "coordinates": [
                -73.4,
                -52.33
            ]
        }
    },
    {
        "type": "Feature",
        "properties": {
            "Name": "Bus-Obo",
            "Country": "Mongolia",
            "Altitude": "1162",
            "Type": "Cinder cone"
        },
        "geometry": {
            "type": "Point",
            "coordinates": [
                109.08,
                47.12
            ]
        }
    },
    {
        "type": "Feature",
        "properties": {
            "Name": "Butajiri-Silti Field",
            "Country": "Ethiopia",
            "Altitude": "2281",
            "Type": "Fissure vents"
        },
        "geometry": {
            "type": "Point",
            "coordinates": [
                38.35,
                8.05
            ]
        }
    },
    {
        "type": "Feature",
        "properties": {
            "Name": "Buzzard Creek",
            "Country": "Alaska-E",
            "Altitude": "830",
            "Type": "Tuff rings"
        },
        "geometry": {
            "type": "Point",
            "coordinates": [
                -148.42,
                64.07
            ]
        }
    },
    {
        "type": "Feature",
        "properties": {
            "Name": "Cabal",
            "Country": "Philippines-C",
            "Altitude": "945",
            "Type": "Stratovolcano"
        },
        "geometry": {
            "type": "Point",
            "coordinates": [
                125.22,
                10.29
            ]
        }
    },
    {
        "type": "Feature",
        "properties": {
            "Name": "Caburgua-Huelemolle",
            "Country": "Chile-C",
            "Altitude": "1496",
            "Type": "Cinder cones"
        },
        "geometry": {
            "type": "Point",
            "coordinates": [
                -71.7,
                -39.25
            ]
        }
    },
    {
        "type": "Feature",
        "properties": {
            "Name": "Cagua",
            "Country": "Luzon-Philippines",
            "Altitude": "1133",
            "Type": "Stratovolcano"
        },
        "geometry": {
            "type": "Point",
            "coordinates": [
                122.12,
                18.22
            ]
        }
    },
    {
        "type": "Feature",
        "properties": {
            "Name": "Caichinque",
            "Country": "Chile-N",
            "Altitude": "4450",
            "Type": "Stratovolcanoes"
        },
        "geometry": {
            "type": "Point",
            "coordinates": [
                -67.73,
                -23.95
            ]
        }
    },
    {
        "type": "Feature",
        "properties": {
            "Name": "Calabozos",
            "Country": "Chile-C",
            "Altitude": "3508",
            "Type": "Caldera"
        },
        "geometry": {
            "type": "Point",
            "coordinates": [
                -70.5,
                -35.56
            ]
        }
    },
    {
        "type": "Feature",
        "properties": {
            "Name": "Calatrava Volc Field",
            "Country": "Spain",
            "Altitude": "1117",
            "Type": "Pyroclastic cones"
        },
        "geometry": {
            "type": "Point",
            "coordinates": [
                -4.02,
                38.87
            ]
        }
    },
    {
        "type": "Feature",
        "properties": {
            "Name": "Calbuco",
            "Country": "Chile-S",
            "Altitude": "2003",
            "Type": "Stratovolcano"
        },
        "geometry": {
            "type": "Point",
            "coordinates": [
                -72.61,
                -41.33
            ]
        }
    },
    {
        "type": "Feature",
        "properties": {
            "Name": "Callaqui",
            "Country": "Chile-C",
            "Altitude": "3164",
            "Type": "Stratovolcano"
        },
        "geometry": {
            "type": "Point",
            "coordinates": [
                -71.45,
                -37.92
            ]
        }
    },
    {
        "type": "Feature",
        "properties": {
            "Name": "Cameroon",
            "Country": "Africa-W",
            "Altitude": "4095",
            "Type": "Stratovolcano"
        },
        "geometry": {
            "type": "Point",
            "coordinates": [
                9.17,
                4.2
            ]
        }
    },
    {
        "type": "Feature",
        "properties": {
            "Name": "Camiguin",
            "Country": "Mindanao-Philippines",
            "Altitude": "1552",
            "Type": "Stratovolcanoes"
        },
        "geometry": {
            "type": "Point",
            "coordinates": [
                124.67,
                9.2
            ]
        }
    },
    {
        "type": "Feature",
        "properties": {
            "Name": "Camiguin de Babuyanes",
            "Country": "Luzon-N of",
            "Altitude": "712",
            "Type": "Stratovolcano"
        },
        "geometry": {
            "type": "Point",
            "coordinates": [
                121.86,
                18.83
            ]
        }
    },
    {
        "type": "Feature",
        "properties": {
            "Name": "Campi Flegrei",
            "Country": "Italy",
            "Altitude": "458",
            "Type": "Caldera"
        },
        "geometry": {
            "type": "Point",
            "coordinates": [
                14.14,
                40.83
            ]
        }
    },
    {
        "type": "Feature",
        "properties": {
            "Name": "Campi Flegrei Mar Sicilia",
            "Country": "Italy",
            "Altitude": "-8",
            "Type": "Submarine volcanoes"
        },
        "geometry": {
            "type": "Point",
            "coordinates": [
                12.7,
                37.1
            ]
        }
    },
    {
        "type": "Feature",
        "properties": {
            "Name": "Candlemas Island",
            "Country": "Antarctica",
            "Altitude": "550",
            "Type": "Stratovolcano"
        },
        "geometry": {
            "type": "Point",
            "coordinates": [
                -26.67,
                -57.08
            ]
        }
    },
    {
        "type": "Feature",
        "properties": {
            "Name": "Canlaon",
            "Country": "Philippines-C",
            "Altitude": "2435",
            "Type": "Stratovolcano"
        },
        "geometry": {
            "type": "Point",
            "coordinates": [
                123.13,
                10.41
            ]
        }
    },
    {
        "type": "Feature",
        "properties": {
            "Name": "Capulin Mountain",
            "Country": "US-New Mexico",
            "Altitude": "2494",
            "Type": "Cinder cones"
        },
        "geometry": {
            "type": "Point",
            "coordinates": [
                -104.1,
                36.4
            ]
        }
    },
    {
        "type": "Feature",
        "properties": {
            "Name": "Carlisle",
            "Country": "Aleutian Is",
            "Altitude": "1620",
            "Type": "Stratovolcano"
        },
        "geometry": {
            "type": "Point",
            "coordinates": [
                -170.05,
                52.89
            ]
        }
    },
    {
        "type": "Feature",
        "properties": {
            "Name": "Carran-Los Venados",
            "Country": "Chile-C",
            "Altitude": "1114",
            "Type": "Pyroclastic cones"
        },
        "geometry": {
            "type": "Point",
            "coordinates": [
                -72.07,
                -40.35
            ]
        }
    },
    {
        "type": "Feature",
        "properties": {
            "Name": "Carrizozo",
            "Country": "US-New Mexico",
            "Altitude": "1731",
            "Type": "Cinder cones"
        },
        "geometry": {
            "type": "Point",
            "coordinates": [
                -105.93,
                33.78
            ]
        }
    },
    {
        "type": "Feature",
        "properties": {
            "Name": "Casiri: Nevados",
            "Country": "Peru",
            "Altitude": "5650",
            "Type": "Stratovolcanoes"
        },
        "geometry": {
            "type": "Point",
            "coordinates": [
                -69.81,
                -17.47
            ]
        }
    },
    {
        "type": "Feature",
        "properties": {
            "Name": "Cay",
            "Country": "Chile-S",
            "Altitude": "2090",
            "Type": "Stratovolcano"
        },
        "geometry": {
            "type": "Point",
            "coordinates": [
                -72.98,
                -45.06
            ]
        }
    },
    {
        "type": "Feature",
        "properties": {
            "Name": "Cayambe",
            "Country": "Ecuador",
            "Altitude": "5790",
            "Type": "Compound volcano"
        },
        "geometry": {
            "type": "Point",
            "coordinates": [
                -77.99,
                0.03
            ]
        }
    },
    {
        "type": "Feature",
        "properties": {
            "Name": "Cayutu -La Viguer a",
            "Country": "Chile-S",
            "Altitude": "506",
            "Type": "Pyroclastic cones"
        },
        "geometry": {
            "type": "Point",
            "coordinates": [
                -72.27,
                -41.25
            ]
        }
    },
    {
        "type": "Feature",
        "properties": {
            "Name": "Ceboruco",
            "Country": "Mexico",
            "Altitude": "2280",
            "Type": "Stratovolcano"
        },
        "geometry": {
            "type": "Point",
            "coordinates": [
                -104.51,
                21.13
            ]
        }
    },
    {
        "type": "Feature",
        "properties": {
            "Name": "Cendres: Ile des",
            "Country": "SE Asia",
            "Altitude": "-20",
            "Type": "Submarine volcanoes"
        },
        "geometry": {
            "type": "Point",
            "coordinates": [
                109.01,
                10.16
            ]
        }
    },
    {
        "type": "Feature",
        "properties": {
            "Name": "Central Island",
            "Country": "Africa-E",
            "Altitude": "550",
            "Type": "Tuff cones"
        },
        "geometry": {
            "type": "Point",
            "coordinates": [
                36.04,
                3.5
            ]
        }
    },
    {
        "type": "Feature",
        "properties": {
            "Name": "Cereme",
            "Country": "Java",
            "Altitude": "3078",
            "Type": "Stratovolcano"
        },
        "geometry": {
            "type": "Point",
            "coordinates": [
                108.4,
                -6.89
            ]
        }
    },
    {
        "type": "Feature",
        "properties": {
            "Name": "Chacana",
            "Country": "Ecuador",
            "Altitude": "4643",
            "Type": "Caldera"
        },
        "geometry": {
            "type": "Point",
            "coordinates": [
                -78.25,
                -0.38
            ]
        }
    },
    {
        "type": "Feature",
        "properties": {
            "Name": "Chachani: Nevado",
            "Country": "Peru",
            "Altitude": "6057",
            "Type": "Stratovolcano"
        },
        "geometry": {
            "type": "Point",
            "coordinates": [
                -71.53,
                -16.19
            ]
        }
    },
    {
        "type": "Feature",
        "properties": {
            "Name": "Chagulak",
            "Country": "Aleutian Is",
            "Altitude": "1142",
            "Type": "Stratovolcano"
        },
        "geometry": {
            "type": "Point",
            "coordinates": [
                -171.13,
                52.58
            ]
        }
    },
    {
        "type": "Feature",
        "properties": {
            "Name": "Cha ne des Puys",
            "Country": "France",
            "Altitude": "1464",
            "Type": "Cinder cones"
        },
        "geometry": {
            "type": "Point",
            "coordinates": [
                2.97,
                45.78
            ]
        }
    },
    {
        "type": "Feature",
        "properties": {
            "Name": "Chait n",
            "Country": "Chile-S",
            "Altitude": "1122",
            "Type": "Caldera"
        },
        "geometry": {
            "type": "Point",
            "coordinates": [
                -72.65,
                -42.83
            ]
        }
    },
    {
        "type": "Feature",
        "properties": {
            "Name": "Changbaishan",
            "Country": "China-E",
            "Altitude": "2744",
            "Type": "Stratovolcano"
        },
        "geometry": {
            "type": "Point",
            "coordinates": [
                128.08,
                41.98
            ]
        }
    },
    {
        "type": "Feature",
        "properties": {
            "Name": "Cherny",
            "Country": "Kamchatka",
            "Altitude": "1778",
            "Type": "Stratovolcano"
        },
        "geometry": {
            "type": "Point",
            "coordinates": [
                159.67,
                56.82
            ]
        }
    },
    {
        "type": "Feature",
        "properties": {
            "Name": "Cherpuk Group",
            "Country": "Kamchatka",
            "Altitude": "1868",
            "Type": "Pyroclastic cones"
        },
        "geometry": {
            "type": "Point",
            "coordinates": [
                157.47,
                55.55
            ]
        }
    },
    {
        "type": "Feature",
        "properties": {
            "Name": "Chichinautzin",
            "Country": "Mexico",
            "Altitude": "3930",
            "Type": "Volcanic field"
        },
        "geometry": {
            "type": "Point",
            "coordinates": [
                -99.13,
                19.08
            ]
        }
    },
    {
        "type": "Feature",
        "properties": {
            "Name": "Chich n: El",
            "Country": "Mexico",
            "Altitude": "1150",
            "Type": "Lava domes"
        },
        "geometry": {
            "type": "Point",
            "coordinates": [
                -93.23,
                17.36
            ]
        }
    },
    {
        "type": "Feature",
        "properties": {
            "Name": "Chiginagak",
            "Country": "Alaska Peninsula",
            "Altitude": "2221",
            "Type": "Stratovolcano"
        },
        "geometry": {
            "type": "Point",
            "coordinates": [
                -156.99,
                57.14
            ]
        }
    },
    {
        "type": "Feature",
        "properties": {
            "Name": "Chikurachki",
            "Country": "Kuril Is",
            "Altitude": "1816",
            "Type": "Stratovolcanoes"
        },
        "geometry": {
            "type": "Point",
            "coordinates": [
                155.46,
                50.33
            ]
        }
    },
    {
        "type": "Feature",
        "properties": {
            "Name": "Chiliques",
            "Country": "Chile-N",
            "Altitude": "5778",
            "Type": "Stratovolcano"
        },
        "geometry": {
            "type": "Point",
            "coordinates": [
                -67.7,
                -23.58
            ]
        }
    },
    {
        "type": "Feature",
        "properties": {
            "Name": "Chill n: Nevados de",
            "Country": "Chile-C",
            "Altitude": "3212",
            "Type": "Stratovolcano"
        },
        "geometry": {
            "type": "Point",
            "coordinates": [
                -71.38,
                -36.86
            ]
        }
    },
    {
        "type": "Feature",
        "properties": {
            "Name": "Chimborazo",
            "Country": "Ecuador",
            "Altitude": "6310",
            "Type": "Stratovolcano"
        },
        "geometry": {
            "type": "Point",
            "coordinates": [
                -78.82,
                -1.46
            ]
        }
    },
    {
        "type": "Feature",
        "properties": {
            "Name": "Chinameca",
            "Country": "El Salvador",
            "Altitude": "1300",
            "Type": "Stratovolcano"
        },
        "geometry": {
            "type": "Point",
            "coordinates": [
                -88.33,
                13.48
            ]
        }
    },
    {
        "type": "Feature",
        "properties": {
            "Name": "Chingo",
            "Country": "Guatemala",
            "Altitude": "1775",
            "Type": "Stratovolcano"
        },
        "geometry": {
            "type": "Point",
            "coordinates": [
                -89.73,
                14.12
            ]
        }
    },
    {
        "type": "Feature",
        "properties": {
            "Name": "Chiquimula Volc Field",
            "Country": "Guatemala",
            "Altitude": "1192",
            "Type": "Cinder cones"
        },
        "geometry": {
            "type": "Point",
            "coordinates": [
                -89.55,
                14.83
            ]
        }
    },
    {
        "type": "Feature",
        "properties": {
            "Name": "Chiracha",
            "Country": "Ethiopia",
            "Altitude": "1650",
            "Type": "Stratovolcano"
        },
        "geometry": {
            "type": "Point",
            "coordinates": [
                38.12,
                6.65
            ]
        }
    },
    {
        "type": "Feature",
        "properties": {
            "Name": "Chirinkotan",
            "Country": "Kuril Is",
            "Altitude": "724",
            "Type": "Stratovolcano"
        },
        "geometry": {
            "type": "Point",
            "coordinates": [
                153.48,
                48.98
            ]
        }
    },
    {
        "type": "Feature",
        "properties": {
            "Name": "Chirip",
            "Country": "Kuril Is",
            "Altitude": "1587",
            "Type": "Stratovolcanoes"
        },
        "geometry": {
            "type": "Point",
            "coordinates": [
                147.93,
                45.34
            ]
        }
    },
    {
        "type": "Feature",
        "properties": {
            "Name": "Chirpoi",
            "Country": "Kuril Is",
            "Altitude": "742",
            "Type": "Caldera"
        },
        "geometry": {
            "type": "Point",
            "coordinates": [
                150.88,
                46.53
            ]
        }
    },
    {
        "type": "Feature",
        "properties": {
            "Name": "Chokai",
            "Country": "Honshu-Japan",
            "Altitude": "2233",
            "Type": "Stratovolcanoes"
        },
        "geometry": {
            "type": "Point",
            "coordinates": [
                140.05,
                39.1
            ]
        }
    },
    {
        "type": "Feature",
        "properties": {
            "Name": "Ch'uga-ryong",
            "Country": "Korea",
            "Altitude": "452",
            "Type": "Shield volcano"
        },
        "geometry": {
            "type": "Point",
            "coordinates": [
                127.33,
                38.33
            ]
        }
    },
    {
        "type": "Feature",
        "properties": {
            "Name": "Churchill",
            "Country": "Alaska-E",
            "Altitude": "5005",
            "Type": "Stratovolcano"
        },
        "geometry": {
            "type": "Point",
            "coordinates": [
                -141.75,
                61.38
            ]
        }
    },
    {
        "type": "Feature",
        "properties": {
            "Name": "Chyulu Hills",
            "Country": "Africa-E",
            "Altitude": "2188",
            "Type": "Volcanic field"
        },
        "geometry": {
            "type": "Point",
            "coordinates": [
                37.88,
                -2.68
            ]
        }
    },
    {
        "type": "Feature",
        "properties": {
            "Name": "Ciguatepe: Cerro el",
            "Country": "Nicaragua",
            "Altitude": "603",
            "Type": "Stratovolcano"
        },
        "geometry": {
            "type": "Point",
            "coordinates": [
                -86.14,
                12.53
            ]
        }
    },
    {
        "type": "Feature",
        "properties": {
            "Name": "Cinnamon Butte",
            "Country": "US-Oregon",
            "Altitude": "1956",
            "Type": "Cinder cones"
        },
        "geometry": {
            "type": "Point",
            "coordinates": [
                -122.11,
                43.24
            ]
        }
    },
    {
        "type": "Feature",
        "properties": {
            "Name": "Cinotepeque: Cerro",
            "Country": "El Salvador",
            "Altitude": "665",
            "Type": "Volcanic field"
        },
        "geometry": {
            "type": "Point",
            "coordinates": [
                -89.25,
                14.02
            ]
        }
    },
    {
        "type": "Feature",
        "properties": {
            "Name": "Clark",
            "Country": "New Zealand",
            "Altitude": "-860",
            "Type": "Submarine volcano"
        },
        "geometry": {
            "type": "Point",
            "coordinates": [
                177.84,
                -36.45
            ]
        }
    },
    {
        "type": "Feature",
        "properties": {
            "Name": "Clear Lake",
            "Country": "US-California",
            "Altitude": "1439",
            "Type": "Volcanic field"
        },
        "geometry": {
            "type": "Point",
            "coordinates": [
                -122.77,
                38.97
            ]
        }
    },
    {
        "type": "Feature",
        "properties": {
            "Name": "Cleft Segment",
            "Country": "Pacific-NE",
            "Altitude": "-2140",
            "Type": "Submarine volcano"
        },
        "geometry": {
            "type": "Point",
            "coordinates": [
                -130.3,
                44.83
            ]
        }
    },
    {
        "type": "Feature",
        "properties": {
            "Name": "Cleveland",
            "Country": "Aleutian Is",
            "Altitude": "1730",
            "Type": "Stratovolcano"
        },
        "geometry": {
            "type": "Point",
            "coordinates": [
                -169.94,
                52.83
            ]
        }
    },
    {
        "type": "Feature",
        "properties": {
            "Name": "Coatepeque Caldera",
            "Country": "El Salvador",
            "Altitude": "746",
            "Type": "Caldera"
        },
        "geometry": {
            "type": "Point",
            "coordinates": [
                -89.55,
                13.87
            ]
        }
    },
    {
        "type": "Feature",
        "properties": {
            "Name": "CoAxial Segment",
            "Country": "Pacific-NE",
            "Altitude": "-2400",
            "Type": "Submarine volcano"
        },
        "geometry": {
            "type": "Point",
            "coordinates": [
                -129.58,
                46.52
            ]
        }
    },
    {
        "type": "Feature",
        "properties": {
            "Name": "Cobb Segment",
            "Country": "Pacific-NE",
            "Altitude": "-2100",
            "Type": "Submarine volcano"
        },
        "geometry": {
            "type": "Point",
            "coordinates": [
                -129.33,
                46.88
            ]
        }
    },
    {
        "type": "Feature",
        "properties": {
            "Name": "Cochiquito Volc Group",
            "Country": "Argentina",
            "Altitude": "1435",
            "Type": "Stratovolcanoes"
        },
        "geometry": {
            "type": "Point",
            "coordinates": [
                -69.82,
                -36.77
            ]
        }
    },
    {
        "type": "Feature",
        "properties": {
            "Name": "Cochons: Ile aux",
            "Country": "Indian O.-S",
            "Altitude": "775",
            "Type": "Stratovolcano"
        },
        "geometry": {
            "type": "Point",
            "coordinates": [
                50.23,
                -46.1
            ]
        }
    },
    {
        "type": "Feature",
        "properties": {
            "Name": "Cofre de Perote",
            "Country": "Mexico",
            "Altitude": "4282",
            "Type": "Shield volcanoes"
        },
        "geometry": {
            "type": "Point",
            "coordinates": [
                -97.15,
                19.49
            ]
        }
    },
    {
        "type": "Feature",
        "properties": {
            "Name": "Colachi",
            "Country": "Chile-N",
            "Altitude": "5631",
            "Type": "Stratovolcano"
        },
        "geometry": {
            "type": "Point",
            "coordinates": [
                -67.65,
                -23.24
            ]
        }
    },
    {
        "type": "Feature",
        "properties": {
            "Name": "Coleman Seamount",
            "Country": "Solomon Is-SW Pacific",
            "Altitude": "",
            "Type": "Submarine volcano"
        },
        "geometry": {
            "type": "Point",
            "coordinates": [
                157.17,
                -8.83
            ]
        }
    },
    {
        "type": "Feature",
        "properties": {
            "Name": "Colima",
            "Country": "Mexico",
            "Altitude": "3850",
            "Type": "Stratovolcanoes"
        },
        "geometry": {
            "type": "Point",
            "coordinates": [
                -103.62,
                19.51
            ]
        }
    },
    {
        "type": "Feature",
        "properties": {
            "Name": "Colo [Una Una]",
            "Country": "Sulawesi-Indonesia",
            "Altitude": "507",
            "Type": "Stratovolcano"
        },
        "geometry": {
            "type": "Point",
            "coordinates": [
                121.61,
                -0.17
            ]
        }
    },
    {
        "type": "Feature",
        "properties": {
            "Name": "Comond -La Pur sima",
            "Country": "Mexico",
            "Altitude": "780",
            "Type": "Volcanic field"
        },
        "geometry": {
            "type": "Point",
            "coordinates": [
                -111.92,
                26.0
            ]
        }
    },
    {
        "type": "Feature",
        "properties": {
            "Name": "Concepci n",
            "Country": "Nicaragua",
            "Altitude": "1700",
            "Type": "Stratovolcano"
        },
        "geometry": {
            "type": "Point",
            "coordinates": [
                -85.62,
                11.54
            ]
        }
    },
    {
        "type": "Feature",
        "properties": {
            "Name": "Conchagua",
            "Country": "El Salvador",
            "Altitude": "1225",
            "Type": "Stratovolcano"
        },
        "geometry": {
            "type": "Point",
            "coordinates": [
                -87.85,
                13.28
            ]
        }
    },
    {
        "type": "Feature",
        "properties": {
            "Name": "Conchag ita",
            "Country": "El Salvador",
            "Altitude": "505",
            "Type": "Stratovolcano"
        },
        "geometry": {
            "type": "Point",
            "coordinates": [
                -87.77,
                13.23
            ]
        }
    },
    {
        "type": "Feature",
        "properties": {
            "Name": "C ndor: Cerro el",
            "Country": "Argentina",
            "Altitude": "6532",
            "Type": "Stratovolcano"
        },
        "geometry": {
            "type": "Point",
            "coordinates": [
                -68.35,
                -26.62
            ]
        }
    },