[
    {
        "city": "St. Cloud",
        "growth": 86.2,
        "latitude": 28.2489016,
        "longitude": -81.2811801,
        "population": 40918,
        "state": "Florida"
    },
    {
        "city": "Normal",
        "growth": 19.7,
        "latitude": 40.5142026,
        "longitude": -88.9906312,
        "population": 54664,
        "state": "Illinois"
    },
    {
        "city": "La Puente",
        "growth": -1.6,
        "latitude": 34.0200114,
        "longitude": -117.9495083,
        "population": 40435,
        "state": "California"
    },
    {
        "city": "Skokie",
        "growth": 2.8,
        "latitude": 42.0324025,
        "longitude": -87.7416246,
        "population": 65176,
        "state": "Illinois"
    },
    {
        "city": "San Mateo",
        "growth": 9,
        "latitude": 37.5629917,
        "longitude": -122.3255254,
        "population": 101128,
        "state": "California"
    },
    {
        "city": "Cedar Falls",
        "growth": 12,
        "latitude": 42.5348993,
        "longitude": -92.4453161,
        "population": 40566,
        "state": "Iowa"
    },
    {
        "city": "Farmington Hills",
        "growth": -0.9,
        "latitude": 42.4989936,
        "longitude": -83.3677168,
        "population": 81295,
        "state": "Michigan"
    },
    {
        "city": "Garden Grove",
        "growth": 5.8,
        "latitude": 33.7739053,
        "longitude": -117.9414477,
        "population": 175140,
        "state": "California"
    },
    {
        "city": "Redondo Beach",
        "growth": 6.7,
        "latitude": 33.8491816,
        "longitude": -118.3884078,
        "population": 67815,
        "state": "California"
    },
    {
        "city": "Urbandale",
        "growth": 41.5,
        "latitude": 41.6266555,
        "longitude": -93.71216559999999,
        "population": 41776,
        "state": "Iowa"
    },
    {
        "city": "Daly City",
        "growth": 1,
        "latitude": 37.6879241,
        "longitude": -122.4702079,
        "population": 104739,
        "state": "California"
    },
    {
        "city": "Elgin",
        "growth": 16,
        "latitude": 42.0354084,
        "longitude": -88.2825668,
        "population": 110145,
        "state": "Illinois"
    },
    {
        "city": "Bartlett",
        "growth": 31.7,
        "latitude": 35.2045328,
        "longitude": -89.8739753,
        "population": 58226,
        "state": "Tennessee"
    },
    {
        "city": "Gary",
        "growth": -23.4,
        "latitude": 41.5933696,
        "longitude": -87.3464271,
        "population": 78450,
        "state": "Indiana"
    },
    {
        "city": "Huntsville",
        "growth": 13.2,
        "latitude": 30.7235263,
        "longitude": -95.55077709999999,
        "population": 39795,
        "state": "Texas"
    },
    {
        "city": "Altamonte Springs",
        "growth": 2,
        "latitude": 28.6611089,
        "longitude": -81.3656242,
        "population": 42150,
        "state": "Florida"
    },
    {
        "city": "Coppell",
        "growth": 10.3,
        "latitude": 32.9545687,
        "longitude": -97.01500779999999,
        "population": 40342,
        "state": "Texas"
    },
    {
        "city": "Springfield",
        "growth": 7.8,
        "latitude": 37.2089572,
        "longitude": -93.29229889999999,
        "population": 164122,
        "state": "Missouri"
    },
    {
        "city": "Cape Girardeau",
        "growth": 9.4,
        "latitude": 37.3058839,
        "longitude": -89.51814759999999,
        "population": 38816,
        "state": "Missouri"
    },
    {
        "city": "Hayward",
        "growth": 7.5,
        "latitude": 37.6688205,
        "longitude": -122.0807964,
        "population": 151574,
        "state": "California"
    },
    {
        "city": "College Station",
        "growth": 45.2,
        "latitude": 30.627977,
        "longitude": -96.3344068,
        "population": 100050,
        "state": "Texas"
    },
    {
        "city": "Gardena",
        "growth": 3.4,
        "latitude": 33.8883487,
        "longitude": -118.3089624,
        "population": 59957,
        "state": "California"
    },
    {
        "city": "Longview",
        "growth": 11.6,
        "latitude": 32.5007037,
        "longitude": -94.74048909999999,
        "population": 81443,
        "state": "Texas"
    },
    {
        "city": "Alameda",
        "growth": 5.4,
        "latitude": 37.7652065,
        "longitude": -122.2416355,
        "population": 76419,
        "state": "California"
    },
    {
        "city": "Coeur d'Alene",
        "growth": 32.8,
        "latitude": 47.6776832,
        "longitude": -116.7804664,
        "population": 46402,
        "state": "Idaho"
    },
    {
        "city": "Columbus",
        "growth": 14.8,
        "latitude": 39.9611755,
        "longitude": -82.99879419999999,
        "population": 822553,
        "state": "Ohio"
    },
    {
        "city": "Union City",
        "growth": 1.7,
        "latitude": 40.6975898,
        "longitude": -74.26316349999999,
        "population": 68247,
        "state": "New Jersey"
    },
    {
        "city": "Centennial",
        "growth": 3.5,
        "latitude": 39.5807452,
        "longitude": -104.8771726,
        "population": 106114,
        "state": "Colorado"
    },
    {
        "city": "Cambridge",
        "growth": 5.5,
        "latitude": 42.3736158,
        "longitude": -71.10973349999999,
        "population": 107289,
        "state": "Massachusetts"
    },
    {
        "city": "Sherman",
        "growth": 11.6,
        "latitude": 33.6356618,
        "longitude": -96.6088805,
        "population": 39296,
        "state": "Texas"
    },
    {
        "city": "Bristol",
        "growth": 0.4,
        "latitude": 41.67176480000001,
        "longitude": -72.9492703,
        "population": 60568,
        "state": "Connecticut"
    },
    {
        "city": "Crystal Lake",
        "growth": 5.3,
        "latitude": 42.2411344,
        "longitude": -88.31619649999999,
        "population": 40388,
        "state": "Illinois"
    },
    {
        "city": "Downey",
        "growth": 5.3,
        "latitude": 33.9401088,
        "longitude": -118.1331593,
        "population": 113242,
        "state": "California"
    },
    {
        "city": "Sunrise",
        "growth": 4.6,
        "latitude": 26.1669711,
        "longitude": -80.25659499999999,
        "population": 90116,
        "state": "Florida"
    },
    {
        "city": "Pinellas Park",
        "growth": 5.9,
        "latitude": 27.8428025,
        "longitude": -82.6995443,
        "population": 49998,
        "state": "Florida"
    },
    {
        "city": "Plantation",
        "growth": 8.6,
        "latitude": 26.1275862,
        "longitude": -80.23310359999999,
        "population": 90268,
        "state": "Florida"
    },
    {
        "city": "Burlington",
        "growth": 12.1,
        "latitude": 36.0956918,
        "longitude": -79.43779909999999,
        "population": 51510,
        "state": "North Carolina"
    },
    {
        "city": "Cupertino",
        "growth": 14.3,
        "latitude": 37.3229978,
        "longitude": -122.0321823,
        "population": 60189,
        "state": "California"
    },
    {
        "city": "Simi Valley",
        "growth": 12.6,
        "latitude": 34.2694474,
        "longitude": -118.781482,
        "population": 126181,
        "state": "California"
    },
    {
        "city": "Arlington",
        "growth": 13.3,
        "latitude": 32.735687,
        "longitude": -97.10806559999999,
        "population": 379577,
        "state": "Texas"
    },
    {
        "city": "Frisco",
        "growth": 287.7,
        "latitude": 33.1506744,
        "longitude": -96.82361159999999,
        "population": 136791,
        "state": "Texas"
    },
    {
        "city": "Mishawaka",
        "growth": 2,
        "latitude": 41.6619927,
        "longitude": -86.15861559999999,
        "population": 47989,
        "state": "Indiana"
    },
    {
        "city": "West Jordan",
        "growth": 38.4,
        "latitude": 40.6096698,
        "longitude": -111.9391031,
        "population": 110077,
        "state": "Utah"
    },
    {
        "city": "St. Clair Shores",
        "growth": -4.6,
        "latitude": 42.4974085,
        "longitude": -82.89636039999999,
        "population": 60070,
        "state": "Michigan"
    },
    {
        "city": "Woodland",
        "growth": 13.8,
        "latitude": 38.67851570000001,
        "longitude": -121.7732971,
        "population": 56590,
        "state": "California"
    },
    {
        "city": "Newark",
        "growth": 3.3,
        "latitude": 37.5296593,
        "longitude": -122.0402399,
        "population": 44096,
        "state": "California"
    },
    {
        "city": "Richardson",
        "growth": 13.2,
        "latitude": 32.9483335,
        "longitude": -96.7298519,
        "population": 104475,
        "state": "Texas"
    },
    {
        "city": "Dearborn Heights",
        "growth": -3,
        "latitude": 42.3369816,
        "longitude": -83.27326269999999,
        "population": 56620,
        "state": "Michigan"
    },
    {
        "city": "New Britain",
        "growth": 1.9,
        "latitude": 41.6612104,
        "longitude": -72.7795419,
        "population": 72939,
        "state": "Connecticut"
    },
    {
        "city": "Sioux City",
        "growth": -2.9,
        "latitude": 42.4999942,
        "longitude": -96.40030689999999,
        "population": 82459,
        "state": "Iowa"
    },
    {
        "city": "Bellevue",
        "growth": 20.5,
        "latitude": 41.1543623,
        "longitude": -95.9145568,
        "population": 53663,
        "state": "Nebraska"
    },
    {
        "city": "Kennewick",
        "growth": 29.1,
        "latitude": 46.2112458,
        "longitude": -119.1372338,
        "population": 76762,
        "state": "Washington"
    },
    {
        "city": "Jefferson City",
        "growth": 6.7,
        "latitude": 38.57670170000001,
        "longitude": -92.1735164,
        "population": 43330,
        "state": "Missouri"
    },
    {
        "city": "Palm Coast",
        "growth": 137.2,
        "latitude": 29.5844524,
        "longitude": -81.20786989999999,
        "population": 78740,
        "state": "Florida"
    },
    {
        "city": "Huber Heights",
        "growth": -0.2,
        "latitude": 39.843947,
        "longitude": -84.12466080000002,
        "population": 38142,
        "state": "Ohio"
    },
    {
        "city": "Lawton",
        "growth": 4.9,
        "latitude": 34.6035669,
        "longitude": -98.39592909999999,
        "population": 97151,
        "state": "Oklahoma"
    },
    {
        "city": "Upland",
        "growth": 9.5,
        "latitude": 34.09751,
        "longitude": -117.6483876,
        "population": 75413,
        "state": "California"
    },
    {
        "city": "Warwick",
        "growth": -4.6,
        "latitude": 41.7001009,
        "longitude": -71.4161671,
        "population": 81971,
        "state": "Rhode Island"
    },
    {
        "city": "Eugene",
        "growth": 14.4,
        "latitude": 44.0520691,
        "longitude": -123.0867536,
        "population": 159190,
        "state": "Oregon"
    },
    {
        "city": "Tallahassee",
        "growth": 21.8,
        "latitude": 30.4382559,
        "longitude": -84.28073289999999,
        "population": 186411,
        "state": "Florida"
    },
    {
        "city": "Bell Gardens",
        "growth": -2.7,
        "latitude": 33.9652918,
        "longitude": -118.1514588,
        "population": 42889,
        "state": "California"
    },
    {
        "city": "Cape Coral",
        "growth": 60.4,
        "latitude": 26.5628537,
        "longitude": -81.9495331,
        "population": 165831,
        "state": "Florida"
    },
    {
        "city": "Germantown",
        "growth": 4.1,
        "latitude": 35.0867577,
        "longitude": -89.8100858,
        "population": 39375,
        "state": "Tennessee"
    },
    {
        "city": "Philadelphia",
        "growth": 2.6,
        "latitude": 39.9525839,
        "longitude": -75.1652215,
        "population": 1553165,
        "state": "Pennsylvania"
    },
    {
        "city": "Greensboro",
        "growth": 22.3,
        "latitude": 36.0726354,
        "longitude": -79.7919754,
        "population": 279639,
        "state": "North Carolina"
    },
    {
        "city": "Hanford",
        "growth": 30.3,
        "latitude": 36.3274502,
        "longitude": -119.6456844,
        "population": 54686,
        "state": "California"
    },
    {
        "city": "Hackensack",
        "growth": 2.9,
        "latitude": 40.8859325,
        "longitude": -74.0434736,
        "population": 44113,
        "state": "New Jersey"
    },
    {
        "city": "Campbell",
        "growth": 4.2,
        "latitude": 37.2871651,
        "longitude": -121.9499568,
        "population": 40584,
        "state": "California"
    },
    {
        "city": "Bullhead City",
        "growth": 15.9,
        "latitude": 35.1359386,
        "longitude": -114.5285981,
        "population": 39383,
        "state": "Arizona"
    },
    {
        "city": "Asheville",
        "growth": 19.6,
        "latitude": 35.5950581,
        "longitude": -82.5514869,
        "population": 87236,
        "state": "North Carolina"
    },
    {
        "city": "Sierra Vista",
        "growth": 19.3,
        "latitude": 31.5455001,
        "longitude": -110.2772856,
        "population": 45129,
        "state": "Arizona"
    },
    {
        "city": "Sterling Heights",
        "growth": 5.2,
        "latitude": 42.5803122,
        "longitude": -83.0302033,
        "population": 131224,
        "state": "Michigan"
    },
    {
        "city": "Prescott",
        "growth": 18.1,
        "latitude": 34.5400242,
        "longitude": -112.4685025,
        "population": 40590,
        "state": "Arizona"
    },
    {
        "city": "Texas City",
        "growth": 10.3,
        "latitude": 29.383845,
        "longitude": -94.9027002,
        "population": 46081,
        "state": "Texas"
    },
    {
        "city": "Aventura",
        "growth": 47.2,
        "latitude": 25.9564812,
        "longitude": -80.1392121,
        "population": 37199,
        "state": "Florida"
    },
    {
        "city": "Elkhart",
        "growth": -2.5,
        "latitude": 41.6819935,
        "longitude": -85.9766671,
        "population": 51265,
        "state": "Indiana"
    },
    {
        "city": "Oceanside",
        "growth": 6.6,
        "latitude": 33.1958696,
        "longitude": -117.3794834,
        "population": 172794,
        "state": "California"
    },
    {
        "city": "Collierville",
        "growth": 43.4,
        "latitude": 35.042036,
        "longitude": -89.6645266,
        "population": 47333,
        "state": "Tennessee"
    },
    {
        "city": "Elyria",
        "growth": -3.7,
        "latitude": 41.3683798,
        "longitude": -82.10764859999999,
        "population": 53956,
        "state": "Ohio"
    },
    {
        "city": "Syracuse",
        "growth": -0.9,
        "latitude": 43.0481221,
        "longitude": -76.14742439999999,
        "population": 144669,
        "state": "New York"
    },
    {
        "city": "Wilkes-Barre",
        "growth": -4.3,
        "latitude": 41.2459149,
        "longitude": -75.88130749999999,
        "population": 41108,
        "state": "Pennsylvania"
    },
    {
        "city": "Schaumburg",
        "growth": -0.5,
        "latitude": 42.0333607,
        "longitude": -88.0834059,
        "population": 74907,
        "state": "Illinois"
    },
    {
        "city": "Norwich",
        "growth": 11.6,
        "latitude": 41.5242649,
        "longitude": -72.07591049999999,
        "population": 40347,
        "state": "Connecticut"
    },
    {
        "city": "Fayetteville",
        "growth": 2.4,
        "latitude": 35.0526641,
        "longitude": -78.87835849999999,
        "population": 204408,
        "state": "North Carolina"
    },
    {
        "city": "Yakima",
        "growth": 11.7,
        "latitude": 46.6020711,
        "longitude": -120.5058987,
        "population": 93257,
        "state": "Washington"
    },
    {
        "city": "Pasadena",
        "growth": 7.5,
        "latitude": 29.6910625,
        "longitude": -95.2091006,
        "population": 152735,
        "state": "Texas"
    },
    {
        "city": "South Jordan",
        "growth": 100.1,
        "latitude": 40.5621704,
        "longitude": -111.929658,
        "population": 59366,
        "state": "Utah"
    },
    {
        "city": "Huntington Park",
        "growth": -4.1,
        "latitude": 33.9816812,
        "longitude": -118.2250725,
        "population": 58879,
        "state": "California"
    },
    {
        "city": "Mesa",
        "growth": 13.5,
        "latitude": 33.4151843,
        "longitude": -111.8314724,
        "population": 457587,
        "state": "Arizona"
    },
    {
        "city": "Azusa",
        "growth": 6.7,
        "latitude": 34.1336186,
        "longitude": -117.9075627,
        "population": 47842,
        "state": "California"
    },
    {
        "city": "Bethlehem",
        "growth": 5.2,
        "latitude": 40.6259316,
        "longitude": -75.37045789999999,
        "population": 75018,
        "state": "Pennsylvania"
    },
    {
        "city": "Manhattan",
        "growth": 22.8,
        "latitude": 39.18360819999999,
        "longitude": -96.57166939999999,
        "population": 56143,
        "state": "Kansas"
    },
    {
        "city": "Blaine",
        "growth": 32.8,
        "latitude": 45.1607987,
        "longitude": -93.23494889999999,
        "population": 60407,
        "state": "Minnesota"
    },
    {
        "city": "West Sacramento",
        "growth": 55.6,
        "latitude": 38.5804609,
        "longitude": -121.530234,
        "population": 49891,
        "state": "California"
    },
    {
        "city": "Vista",
        "growth": 7.7,
        "latitude": 33.2000368,
        "longitude": -117.2425355,
        "population": 96929,
        "state": "California"
    },
    {
        "city": "Reno",
        "growth": 26.8,
        "latitude": 39.5296329,
        "longitude": -119.8138027,
        "population": 233294,
        "state": "Nevada"
    },
    {
        "city": "Santa Rosa",
        "growth": 15.2,
        "latitude": 38.440429,
        "longitude": -122.7140548,
        "population": 171990,
        "state": "California"
    },
    {
        "city": "Meridian",
        "growth": -0.9,
        "latitude": 32.3643098,
        "longitude": -88.703656,
        "population": 40921,
        "state": "Mississippi"
    },
    {
        "city": "Portage",
        "growth": 5.7,
        "latitude": 42.2011538,
        "longitude": -85.5800022,
        "population": 47523,
        "state": "Michigan"
    },
    {
        "city": "Richmond",
        "growth": 8.2,
        "latitude": 37.5407246,
        "longitude": -77.4360481,
        "population": 214114,
        "state": "Virginia"
    },
    {
        "city": "El Cajon",
        "growth": 7.4,
        "latitude": 32.7947731,
        "longitude": -116.9625269,
        "population": 102211,
        "state": "California"
    },
    {
        "city": "Fort Worth",
        "growth": 45.1,
        "latitude": 32.7554883,
        "longitude": -97.3307658,
        "population": 792727,
        "state": "Texas"
    },
    {
        "city": "San Angelo",
        "growth": 10.2,
        "latitude": 31.4637723,
        "longitude": -100.4370375,
        "population": 97492,
        "state": "Texas"
    },
    {
        "city": "Rancho Cucamonga",
        "growth": 32.7,
        "latitude": 34.10639889999999,
        "longitude": -117.5931084,
        "population": 171386,
        "state": "California"
    },
    {
        "city": "Hartford",
        "growth": 0.6,
        "latitude": 41.76371109999999,
        "longitude": -72.6850932,
        "population": 125017,
        "state": "Connecticut"
    },
    {
        "city": "Terre Haute",
        "growth": 2.5,
        "latitude": 39.4667034,
        "longitude": -87.41390919999999,
        "population": 61025,
        "state": "Indiana"
    },
    {
        "city": "Edmond",
        "growth": 26.9,
        "latitude": 35.6528323,
        "longitude": -97.47809540000002,
        "population": 87004,
        "state": "Oklahoma"
    },
    {
        "city": "Clifton",
        "growth": 7.9,
        "latitude": 40.8584328,
        "longitude": -74.16375529999999,
        "population": 85390,
        "state": "New Jersey"
    },
    {
        "city": "Corvallis",
        "growth": 11.8,
        "latitude": 44.5645659,
        "longitude": -123.2620435,
        "population": 55298,
        "state": "Oregon"
    },
    {
        "city": "Schenectady",
        "growth": 6.7,
        "latitude": 42.8142432,
        "longitude": -73.9395687,
        "population": 65902,
        "state": "New York"
    },
    {
        "city": "Oro Valley",
        "growth": 27,
        "latitude": 32.3909071,
        "longitude": -110.966488,
        "population": 41627,
        "state": "Arizona"
    },
    {
        "city": "Noblesville",
        "growth": 88.1,
        "latitude": 40.0455917,
        "longitude": -86.0085955,
        "population": 56540,
        "state": "Indiana"
    },
    {
        "city": "Downers Grove",
        "growth": 0,
        "latitude": 41.8089191,
        "longitude": -88.01117459999999,
        "population": 49670,
        "state": "Illinois"
    },
    {
        "city": "Chula Vista",
        "growth": 46.2,
        "latitude": 32.6400541,
        "longitude": -117.0841955,
        "population": 256780,
        "state": "California"
    },
    {
        "city": "Calumet City",
        "growth": -4.5,
        "latitude": 41.6155909,
        "longitude": -87.5294871,
        "population": 37240,
        "state": "Illinois"
    },
    {
        "city": "Waco",
        "growth": 12.5,
        "latitude": 31.549333,
        "longitude": -97.1466695,
        "population": 129030,
        "state": "Texas"
    },
    {
        "city": "Tustin",
        "growth": 15.6,
        "latitude": 33.7458511,
        "longitude": -117.826166,
        "population": 78327,
        "state": "California"
    },
    {
        "city": "Cathedral City",
        "growth": 23.2,
        "latitude": 33.7805388,
        "longitude": -116.4668036,
        "population": 52977,
        "state": "California"
    },
    {
        "city": "Fort Smith",
        "growth": 8.6,
        "latitude": 35.3859242,
        "longitude": -94.39854749999999,
        "population": 87650,
        "state": "Arkansas"
    },
    {
        "city": "Green Bay",
        "growth": 1.9,
        "latitude": 44.51915899999999,
        "longitude": -88.019826,
        "population": 104779,
        "state": "Wisconsin"
    },
    {
        "city": "Galveston",
        "growth": -15.2,
        "latitude": 29.3013479,
        "longitude": -94.7976958,
        "population": 48733,
        "state": "Texas"
    },
    {
        "city": "Wauwatosa",
        "growth": 0,
        "latitude": 43.0494572,
        "longitude": -88.0075875,
        "population": 47134,
        "state": "Wisconsin"
    },
    {
        "city": "Lewisville",
        "growth": 28.9,
        "latitude": 33.046233,
        "longitude": -96.994174,
        "population": 101074,
        "state": "Texas"
    },
    {
        "city": "Arcadia",
        "growth": 8.3,
        "latitude": 34.1397292,
        "longitude": -118.0353449,
        "population": 57639,
        "state": "California"
    },
    {
        "city": "Anchorage",
        "growth": 15.4,
        "latitude": 61.2180556,
        "longitude": -149.9002778,
        "population": 300950,
        "state": "Alaska"
    },
    {
        "city": "Livermore",
        "growth": 15.1,
        "latitude": 37.6818745,
        "longitude": -121.7680088,
        "population": 85156,
        "state": "California"
    },
    {
        "city": "Garland",
        "growth": 8.5,
        "latitude": 32.912624,
        "longitude": -96.63888329999999,
        "population": 234566,
        "state": "Texas"
    },
    {
        "city": "Decatur",
        "growth": 3.1,
        "latitude": 34.6059253,
        "longitude": -86.9833417,
        "population": 55816,
        "state": "Alabama"
    },
    {
        "city": "Grand Rapids",
        "growth": -2.8,
        "latitude": 42.9633599,
        "longitude": -85.6680863,
        "population": 192294,
        "state": "Michigan"
    },
    {
        "city": "Federal Way",
        "growth": 8.8,
        "latitude": 47.3223221,
        "longitude": -122.3126222,
        "population": 92734,
        "state": "Washington"
    },
    {
        "city": "Oakland",
        "growth": 1.3,
        "latitude": 37.8043637,
        "longitude": -122.2711137,
        "population": 406253,
        "state": "California"
    },
    {
        "city": "Norman",
        "growth": 22,
        "latitude": 35.2225668,
        "longitude": -97.4394777,
        "population": 118197,
        "state": "Oklahoma"
    },
    {
        "city": "Dothan",
        "growth": 16.6,
        "latitude": 31.2232313,
        "longitude": -85.3904888,
        "population": 68001,
        "state": "Alabama"
    },
    {
        "city": "Corona",
        "growth": 23.6,
        "latitude": 33.8752935,
        "longitude": -117.5664384,
        "population": 159503,
        "state": "California"
    },
    {
        "city": "Hattiesburg",
        "growth": 3.1,
        "latitude": 31.3271189,
        "longitude": -89.29033919999999,
        "population": 47556,
        "state": "Mississippi"
    },
    {
        "city": "Chandler",
        "growth": 38.7,
        "latitude": 33.3061605,
        "longitude": -111.8412502,
        "population": 249146,
        "state": "Arizona"
    },
    {
        "city": "Honolulu",
        "growth": -6.2,
        "latitude": 21.3069444,
        "longitude": -157.8583333,
        "population": 347884,
        "state": "Hawaii"
    },
    {
        "city": "Miami Gardens",
        "growth": 10.5,
        "latitude": 25.9420377,
        "longitude": -80.2456045,
        "population": 111378,
        "state": "Florida"
    },
    {
        "city": "Smyrna",
        "growth": 54.9,
        "latitude": 35.9828412,
        "longitude": -86.5186045,
        "population": 43060,
        "state": "Tennessee"
    },
    {
        "city": "Lancaster",
        "growth": 46.4,
        "latitude": 32.5920798,
        "longitude": -96.7561082,
        "population": 38071,
        "state": "Texas"
    },
    {
        "city": "Porterville",
        "growth": 20.1,
        "latitude": 36.06523,
        "longitude": -119.0167679,
        "population": 55174,
        "state": "California"
    },
    {
        "city": "Grand Forks",
        "growth": 11.5,
        "latitude": 47.9252568,
        "longitude": -97.0328547,
        "population": 54932,
        "state": "North Dakota"
    },
    {
        "city": "St. Joseph",
        "growth": 4.1,
        "latitude": 39.7674578,
        "longitude": -94.84668099999999,
        "population": 77147,
        "state": "Missouri"
    },
    {
        "city": "Ames",
        "growth": 21.3,
        "latitude": 42.034722,
        "longitude": -93.61999999999999,
        "population": 61792,
        "state": "Iowa"
    },
    {
        "city": "Lakewood",
        "growth": 1.1,
        "latitude": 47.1717649,
        "longitude": -122.518458,
        "population": 59097,
        "state": "Washington"
    },
    {
        "city": "High Point",
        "growth": 24.3,
        "latitude": 35.9556923,
        "longitude": -80.0053176,
        "population": 107741,
        "state": "North Carolina"
    },
    {
        "city": "Maplewood",
        "growth": 12.3,
        "latitude": 44.9530215,
        "longitude": -92.9952153,
        "population": 39765,
        "state": "Minnesota"
    },
    {
        "city": "Richmond",
        "growth": 7.9,
        "latitude": 37.9357576,
        "longitude": -122.3477486,
        "population": 107571,
        "state": "California"
    },
    {
        "city": "Newport News",
        "growth": 0.9,
        "latitude": 37.0870821,
        "longitude": -76.4730122,
        "population": 182020,
        "state": "Virginia"
    },
    {
        "city": "Salina",
        "growth": 4.5,
        "latitude": 38.8402805,
        "longitude": -97.61142369999999,
        "population": 47846,
        "state": "Kansas"
    },
    {
        "city": "Evanston",
        "growth": 1.9,
        "latitude": 42.0450722,
        "longitude": -87.68769689999999,
        "population": 75570,
        "state": "Illinois"
    },
    {
        "city": "Sheboygan",
        "growth": -3.9,
        "latitude": 43.7508284,
        "longitude": -87.71453,
        "population": 48725,
        "state": "Wisconsin"
    },
    {
        "city": "Mansfield",
        "growth": 114.2,
        "latitude": 32.5631924,
        "longitude": -97.1416768,
        "population": 60872,
        "state": "Texas"
    },
    {
        "city": "Hendersonville",
        "growth": 31.7,
        "latitude": 36.3047735,
        "longitude": -86.6199957,
        "population": 54068,
        "state": "Tennessee"
    },
    {
        "city": "Scranton",
        "growth": 0,
        "latitude": 41.408969,
        "longitude": -75.66241219999999,
        "population": 75806,
        "state": "Pennsylvania"
    },
    {
        "city": "Conroe",
        "growth": 61.9,
        "latitude": 30.3118769,
        "longitude": -95.45605119999999,
        "population": 63032,
        "state": "Texas"
    },
    {
        "city": "Riverside",
        "growth": 22.5,
        "latitude": 33.9533487,
        "longitude": -117.3961564,
        "population": 316619,
        "state": "California"
    },
    {
        "city": "West Covina",
        "growth": 2.3,
        "latitude": 34.0686208,
        "longitude": -117.9389526,
        "population": 107740,
        "state": "California"
    },
    {
        "city": "Bentonville",
        "growth": 97.7,
        "latitude": 36.3728538,
        "longitude": -94.2088172,
        "population": 40167,
        "state": "Arkansas"
    },
    {
        "city": "Peoria",
        "growth": 3,
        "latitude": 40.6936488,
        "longitude": -89.5889864,
        "population": 116513,
        "state": "Illinois"
    },
    {
        "city": "Warren",
        "growth": -2.3,
        "latitude": 42.5144566,
        "longitude": -83.01465259999999,
        "population": 134873,
        "state": "Michigan"
    },
    {
        "city": "San Jacinto",
        "growth": 91.8,
        "latitude": 33.7839084,
        "longitude": -116.958635,
        "population": 45851,
        "state": "California"
    },
    {
        "city": "Surprise",
        "growth": 281.9,
        "latitude": 33.6292337,
        "longitude": -112.3679279,
        "population": 123546,
        "state": "Arizona"
    },
    {
        "city": "Yucaipa",
        "growth": 26.8,
        "latitude": 34.033625,
        "longitude": -117.0430865,
        "population": 52536,
        "state": "California"
    },
    {
        "city": "Duluth",
        "growth": -0.1,
        "latitude": 46.78667189999999,
        "longitude": -92.1004852,
        "population": 86128,
        "state": "Minnesota"
    },
    {
        "city": "The Colony",
        "growth": 45.7,
        "latitude": 33.0806083,
        "longitude": -96.89283089999999,
        "population": 39458,
        "state": "Texas"
    },
    {
        "city": "Elizabeth",
        "growth": 5.5,
        "latitude": 40.6639916,
        "longitude": -74.2107006,
        "population": 127558,
        "state": "New Jersey"
    },
    {
        "city": "Altoona",
        "growth": -7.3,
        "latitude": 40.5186809,
        "longitude": -78.3947359,
        "population": 45796,
        "state": "Pennsylvania"
    },
    {
        "city": "Lake Havasu City",
        "growth": 24.6,
        "latitude": 34.483901,
        "longitude": -114.3224548,
        "population": 52844,
        "state": "Arizona"
    },
    {
        "city": "La Mirada",
        "growth": 4.6,
        "latitude": 33.9172357,
        "longitude": -118.0120086,
        "population": 49133,
        "state": "California"
    },
    {
        "city": "Augusta-Richmond County",
        "growth": 1.1,
        "latitude": 33.4734978,
        "longitude": -82.0105148,
        "population": 197350,
        "state": "Georgia"
    },
    {
        "city": "Gresham",
        "growth": 20.7,
        "latitude": 45.5001357,
        "longitude": -122.4302013,
        "population": 109397,
        "state": "Oregon"
    },
    {
        "city": "Hagerstown",
        "growth": 10.4,
        "latitude": 39.6417629,
        "longitude": -77.71999319999999,
        "population": 40612,
        "state": "Maryland"
    },
    {
        "city": "Lincoln",
        "growth": 285.2,
        "latitude": 38.891565,
        "longitude": -121.2930079,
        "population": 45237,
        "state": "California"
    },
    {
        "city": "Providence",
        "growth": 2.3,
        "latitude": 41.8239891,
        "longitude": -71.4128343,
        "population": 177994,
        "state": "Rhode Island"
    },
    {
        "city": "Bloomington",
        "growth": 1.3,
        "latitude": 44.840798,
        "longitude": -93.2982799,
        "population": 86319,
        "state": "Minnesota"
    },
    {
        "city": "Greenville",
        "growth": 41.9,
        "latitude": 35.612661,
        "longitude": -77.3663538,
        "population": 89130,
        "state": "North Carolina"
    },
    {
        "city": "Rohnert Park",
        "growth": 0,
        "latitude": 38.3396367,
        "longitude": -122.7010984,
        "population": 41398,
        "state": "California"
    },
    {
        "city": "Cuyahoga Falls",
        "growth": -0.2,
        "latitude": 41.1339449,
        "longitude": -81.48455849999999,
        "population": 49267,
        "state": "Ohio"
    },
    {
        "city": "Florence",
        "growth": 10.2,
        "latitude": 34.79981,
        "longitude": -87.677251,
        "population": 40059,
        "state": "Alabama"
    },
    {
        "city": "Alhambra",
        "growth": -0.7,
        "latitude": 34.095287,
        "longitude": -118.1270146,
        "population": 84577,
        "state": "California"
    },
    {
        "city": "Springfield",
        "growth": 12.4,
        "latitude": 44.0462362,
        "longitude": -123.0220289,
        "population": 60177,
        "state": "Oregon"
    },
    {
        "city": "Park Ridge",
        "growth": 0.1,
        "latitude": 42.0111412,
        "longitude": -87.84061919999999,
        "population": 37839,
        "state": "Illinois"
    },
    {
        "city": "Waltham",
        "growth": 5,
        "latitude": 42.3764852,
        "longitude": -71.2356113,
        "population": 62227,
        "state": "Massachusetts"
    },
    {
        "city": "Aurora",
        "growth": 24.4,
        "latitude": 39.7294319,
        "longitude": -104.8319195,
        "population": 345803,
        "state": "Colorado"
    },
    {
        "city": "Johns Creek",
        "growth": 36.5,
        "latitude": 34.0289259,
        "longitude": -84.198579,
        "population": 82788,
        "state": "Georgia"
    },
    {
        "city": "Binghamton",
        "growth": -1.7,
        "latitude": 42.09868669999999,
        "longitude": -75.91797380000001,
        "population": 46444,
        "state": "New York"
    },
    {
        "city": "Mesquite",
        "growth": 14.7,
        "latitude": 32.76679550000001,
        "longitude": -96.5991593,
        "population": 143484,
        "state": "Texas"
    },
    {
        "city": "Novi",
        "growth": 22,
        "latitude": 42.48059,
        "longitude": -83.4754913,
        "population": 57960,
        "state": "Michigan"
    },
    {
        "city": "Savannah",
        "growth": 7.5,
        "latitude": 32.0835407,
        "longitude": -81.09983419999999,
        "population": 142772,
        "state": "Georgia"
    },
    {
        "city": "Arvada",
        "growth": 9.2,
        "latitude": 39.8027644,
        "longitude": -105.0874842,
        "population": 111707,
        "state": "Colorado"
    },
    {
        "city": "Annapolis",
        "growth": 7.6,
        "latitude": 38.9784453,
        "longitude": -76.4921829,
        "population": 38722,
        "state": "Maryland"
    },
    {
        "city": "Lodi",
        "growth": 10.1,
        "latitude": 38.1341477,
        "longitude": -121.2722194,
        "population": 63338,
        "state": "California"
    },
    {
        "city": "Janesville",
        "growth": 5.6,
        "latitude": 42.6827885,
        "longitude": -89.0187222,
        "population": 63820,
        "state": "Wisconsin"
    },
    {
        "city": "Racine",
        "growth": -4.4,
        "latitude": 42.7261309,
        "longitude": -87.78285230000002,
        "population": 78199,
        "state": "Wisconsin"
    },
    {
        "city": "Perth Amboy",
        "growth": 9.7,
        "latitude": 40.5067723,
        "longitude": -74.2654234,
        "population": 51982,
        "state": "New Jersey"
    },
    {
        "city": "Tucson",
        "growth": 7.5,
        "latitude": 32.2217429,
        "longitude": -110.926479,
        "population": 526116,
        "state": "Arizona"
    },
    {
        "city": "North Richland Hills",
        "growth": 20.2,
        "latitude": 32.8342952,
        "longitude": -97.2289029,
        "population": 67317,
        "state": "Texas"
    },
    {
        "city": "Shawnee",
        "growth": 32.2,
        "latitude": 39.02284849999999,
        "longitude": -94.7151865,
        "population": 64323,
        "state": "Kansas"
    },
    {
        "city": "Hurst",
        "growth": 5.8,
        "latitude": 32.8234621,
        "longitude": -97.1705678,
        "population": 38448,
        "state": "Texas"
    },
    {
        "city": "Idaho Falls",
        "growth": 14,
        "latitude": 43.49165139999999,
        "longitude": -112.0339645,
        "population": 58292,
        "state": "Idaho"
    },
    {
        "city": "Rock Island",
        "growth": -1.9,
        "latitude": 41.5094771,
        "longitude": -90.5787476,
        "population": 38877,
        "state": "Illinois"
    },
    {
        "city": "La Crosse",
        "growth": -0.8,
        "latitude": 43.8013556,
        "longitude": -91.23958069999999,
        "population": 51522,
        "state": "Wisconsin"
    },
    {
        "city": "Milford",
        "growth": 1.8,
        "latitude": 41.2306979,
        "longitude": -73.064036,
        "population": 51644,
        "state": "Connecticut"
    },
    {
        "city": "Lake Oswego",
        "growth": 5.3,
        "latitude": 45.42067489999999,
        "longitude": -122.6706498,
        "population": 37610,
        "state": "Oregon"
    },
    {
        "city": "Springfield",
        "growth": 4.2,
        "latitude": 39.78172130000001,
        "longitude": -89.6501481,
        "population": 117006,
        "state": "Illinois"
    },
    {
        "city": "Blacksburg",
        "growth": 9.4,
        "latitude": 37.2295733,
        "longitude": -80.4139393,
        "population": 43609,
        "state": "Virginia"
    },
    {
        "city": "Billings",
        "growth": 18.6,
        "latitude": 45.7832856,
        "longitude": -108.5006904,
        "population": 109059,
        "state": "Montana"
    },
    {
        "city": "Chico",
        "growth": 14.2,
        "latitude": 39.7284944,
        "longitude": -121.8374777,
        "population": 88077,
        "state": "California"
    },
    {
        "city": "Hamilton",
        "growth": 2.7,
        "latitude": 39.3995008,
        "longitude": -84.5613355,
        "population": 62258,
        "state": "Ohio"
    },
    {
        "city": "Redwood City",
        "growth": 7.1,
        "latitude": 37.48521520000001,
        "longitude": -122.2363548,
        "population": 80872,
        "state": "California"
    },
    {
        "city": "Council Bluffs",
        "growth": 6.2,
        "latitude": 41.2619444,
        "longitude": -95.8608333,
        "population": 61969,
        "state": "Iowa"
    },
    {
        "city": "Woonsocket",
        "growth": -5.2,
        "latitude": 42.00287609999999,
        "longitude": -71.51478390000001,
        "population": 41026,
        "state": "Rhode Island"
    },
    {
        "city": "Bossier City",
        "growth": 17.4,
        "latitude": 32.5159852,
        "longitude": -93.7321228,
        "population": 66333,
        "state": "Louisiana"
    },
    {
        "city": "Aurora",
        "growth": 38.4,
        "latitude": 41.7605849,
        "longitude": -88.32007150000001,
        "population": 199963,
        "state": "Illinois"
    },
    {
        "city": "Weymouth Town",
        "growth": 0,
        "latitude": 42.2180724,
        "longitude": -70.94103559999999,
        "population": 55419,
        "state": "Massachusetts"
    },
    {
        "city": "El Paso",
        "growth": 19.4,
        "latitude": 31.7775757,
        "longitude": -106.4424559,
        "population": 674433,
        "state": "Texas"
    },
    {
        "city": "Fort Pierce",
        "growth": 6.9,
        "latitude": 27.4467056,
        "longitude": -80.3256056,
        "population": 43074,
        "state": "Florida"
    },
    {
        "city": "Orange",
        "growth": 7.7,
        "latitude": 33.7877944,
        "longitude": -117.8531119,
        "population": 139969,
        "state": "California"
    },
    {
        "city": "Buckeye",
        "growth": 480.9,
        "latitude": 33.3703197,
        "longitude": -112.5837766,
        "population": 56683,
        "state": "Arizona"
    },
    {
        "city": "Merced",
        "growth": 25.4,
        "latitude": 37.3021632,
        "longitude": -120.4829677,
        "population": 81102,
        "state": "California"
    },
    {
        "city": "Chapel Hill",
        "growth": 24.1,
        "latitude": 35.9131996,
        "longitude": -79.0558445,
        "population": 59635,
        "state": "North Carolina"
    },
    {
        "city": "Montgomery",
        "growth": -0.1,
        "latitude": 32.3668052,
        "longitude": -86.2999689,
        "population": 201332,
        "state": "Alabama"
    },
    {
        "city": "Lakewood",
        "growth": 1.9,
        "latitude": 39.7047095,
        "longitude": -105.0813734,
        "population": 147214,
        "state": "Colorado"
    },
    {
        "city": "Odessa",
        "growth": 22.3,
        "latitude": 31.8456816,
        "longitude": -102.3676431,
        "population": 110720,
        "state": "Texas"
    },
    {
        "city": "Youngstown",
        "growth": -20.2,
        "latitude": 41.0997803,
        "longitude": -80.6495194,
        "population": 65184,
        "state": "Ohio"
    },
    {
        "city": "Charleston",
        "growth": 29.2,
        "latitude": 32.7764749,
        "longitude": -79.93105120000001,
        "population": 127999,
        "state": "South Carolina"
    },
    {
        "city": "Topeka",
        "growth": 3.4,
        "latitude": 39.0558235,
        "longitude": -95.68901849999999,
        "population": 127679,
        "state": "Kansas"
    },
    {
        "city": "New Braunfels",
        "growth": 64,
        "latitude": 29.7030024,
        "longitude": -98.1244531,
        "population": 63279,
        "state": "Texas"
    },
    {
        "city": "Vallejo",
        "growth": 1.2,
        "latitude": 38.1040864,
        "longitude": -122.2566367,
        "population": 118837,
        "state": "California"
    },
    {
        "city": "Yuba City",
        "growth": 27.9,
        "latitude": 39.1404477,
        "longitude": -121.6169108,
        "population": 65416,
        "state": "California"
    },
    {
        "city": "Homestead",
        "growth": 100.7,
        "latitude": 25.4687224,
        "longitude": -80.4775569,
        "population": 64079,
        "state": "Florida"
    },
    {
        "city": "Cary",
        "growth": 55.1,
        "latitude": 35.79154,
        "longitude": -78.7811169,
        "population": 151088,
        "state": "North Carolina"
    },
    {
        "city": "Apex",
        "growth": 98.8,
        "latitude": 35.732652,
        "longitude": -78.85028559999999,
        "population": 42214,
        "state": "North Carolina"
    },
    {
        "city": "Winston-Salem",
        "growth": 16.9,
        "latitude": 36.09985959999999,
        "longitude": -80.244216,
        "population": 236441,
        "state": "North Carolina"
    },
    {
        "city": "Ontario",
        "growth": 5.5,
        "latitude": 34.0633443,
        "longitude": -117.6508876,
        "population": 167500,
        "state": "California"
    },
    {
        "city": "Davis",
        "growth": 11.9,
        "latitude": 38.5449065,
        "longitude": -121.7405167,
        "population": 66205,
        "state": "California"
    },
    {
        "city": "Linden",
        "growth": 4.7,
        "latitude": 40.6220478,
        "longitude": -74.24459019999999,
        "population": 41301,
        "state": "New Jersey"
    },
    {
        "city": "Wylie",
        "growth": 185.2,
        "latitude": 33.0151201,
        "longitude": -96.5388789,
        "population": 44575,
        "state": "Texas"
    },
    {
        "city": "Middletown",
        "growth": 3.6,
        "latitude": 41.5623209,
        "longitude": -72.6506488,
        "population": 47333,
        "state": "Connecticut"
    },
    {
        "city": "Reading",
        "growth": 8,
        "latitude": 40.3356483,
        "longitude": -75.9268747,
        "population": 87893,
        "state": "Pennsylvania"
    },
    {
        "city": "Taylorsville",
        "growth": 2.9,
        "latitude": 40.66772479999999,
        "longitude": -111.9388258,
        "population": 60519,
        "state": "Utah"
    },
    {
        "city": "West Haven",
        "growth": 5.1,
        "latitude": 41.2705484,
        "longitude": -72.9469711,
        "population": 55046,
        "state": "Connecticut"
    },
    {
        "city": "Miami Beach",
        "growth": 3.3,
        "latitude": 25.790654,
        "longitude": -80.1300455,
        "population": 91026,
        "state": "Florida"
    },
    {
        "city": "Saginaw",
        "growth": -18.2,
        "latitude": 43.4194699,
        "longitude": -83.9508068,
        "population": 50303,
        "state": "Michigan"
    },
    {
        "city": "Lorain",
        "growth": -7.2,
        "latitude": 41.452819,
        "longitude": -82.1823746,
        "population": 63710,
        "state": "Ohio"
    },
    {
        "city": "Arlington Heights",
        "growth": -0.6,
        "latitude": 42.0883603,
        "longitude": -87.98062650000001,
        "population": 75994,
        "state": "Illinois"
    },
    {
        "city": "Worcester",
        "growth": 5.8,
        "latitude": 42.2625932,
        "longitude": -71.8022934,
        "population": 182544,
        "state": "Massachusetts"
    },
    {
        "city": "Charlotte",
        "growth": 39.1,
        "latitude": 35.2270869,
        "longitude": -80.8431267,
        "population": 792862,
        "state": "North Carolina"
    },
    {
        "city": "Jupiter",
        "growth": 46.2,
        "latitude": 26.9342246,
        "longitude": -80.0942087,
        "population": 58298,
        "state": "Florida"
    },
    {
        "city": "National City",
        "growth": 10.1,
        "latitude": 32.6781085,
        "longitude": -117.0991967,
        "population": 59834,
        "state": "California"
    },
    {
        "city": "Chino Hills",
        "growth": 13.6,
        "latitude": 33.9898188,
        "longitude": -117.7325848,
        "population": 76572,
        "state": "California"
    },
    {
        "city": "Thousand Oaks",
        "growth": 9.5,
        "latitude": 34.1705609,
        "longitude": -118.8375937,
        "population": 128731,
        "state": "California"
    },
    {
        "city": "Deltona",
        "growth": 23.1,
        "latitude": 28.9005446,
        "longitude": -81.26367379999999,
        "population": 86290,
        "state": "Florida"
    },
    {
        "city": "Methuen",
        "growth": 10.3,
        "latitude": 42.7262016,
        "longitude": -71.1908924,
        "population": 48514,
        "state": "Massachusetts"
    },
    {
        "city": "Yorba Linda",
        "growth": 13.4,
        "latitude": 33.8886259,
        "longitude": -117.8131125,
        "population": 67032,
        "state": "California"
    },
    {
        "city": "Manteca",
        "growth": 42.7,
        "latitude": 37.7974273,
        "longitude": -121.2160526,
        "population": 71948,
        "state": "California"
    },
    {
        "city": "Hialeah",
        "growth": 3.2,
        "latitude": 25.8575963,
        "longitude": -80.2781057,
        "population": 233394,
        "state": "Florida"
    },
    {
        "city": "Rochester",
        "growth": -4.1,
        "latitude": 43.16103,
        "longitude": -77.6109219,
        "population": 210358,
        "state": "New York"
    },
    {
        "city": "Brooklyn Park",
        "growth": 16,
        "latitude": 45.0941315,
        "longitude": -93.3563405,
        "population": 78373,
        "state": "Minnesota"
    },
    {
        "city": "North Little Rock",
        "growth": 9,
        "latitude": 34.769536,
        "longitude": -92.2670941,
        "population": 66075,
        "state": "Arkansas"
    },
    {
        "city": "Midland",
        "growth": 0.9,
        "latitude": 43.6155825,
        "longitude": -84.2472116,
        "population": 42181,
        "state": "Michigan"
    },
    {
        "city": "Beaumont",
        "growth": 3.7,
        "latitude": 30.080174,
        "longitude": -94.1265562,
        "population": 117796,
        "state": "Texas"
    },
    {
        "city": "Fayetteville",
        "growth": 32.9,
        "latitude": 36.0625795,
        "longitude": -94.1574263,
        "population": 78960,
        "state": "Arkansas"
    },
    {
        "city": "Naperville",
        "growth": 12,
        "latitude": 41.7508391,
        "longitude": -88.1535352,
        "population": 144864,
        "state": "Illinois"
    },
    {
        "city": "Milpitas",
        "growth": 11,
        "latitude": 37.4323341,
        "longitude": -121.8995741,
        "population": 69783,
        "state": "California"
    },
    {
        "city": "Pompano Beach",
        "growth": 4,
        "latitude": 26.2378597,
        "longitude": -80.1247667,
        "population": 104410,
        "state": "Florida"
    },
    {
        "city": "Medford",
        "growth": 17.1,
        "latitude": 42.3265152,
        "longitude": -122.8755949,
        "population": 77677,
        "state": "Oregon"
    },
    {
        "city": "New Bedford",
        "growth": 1.2,
        "latitude": 41.6362152,
        "longitude": -70.93420499999999,
        "population": 95078,
        "state": "Massachusetts"
    },
    {
        "city": "Lenexa",
        "growth": 24.6,
        "latitude": 38.9536174,
        "longitude": -94.73357089999999,
        "population": 50344,
        "state": "Kansas"
    },
    {
        "city": "Great Falls",
        "growth": 3.9,
        "latitude": 47.4941836,
        "longitude": -111.2833449,
        "population": 59351,
        "state": "Montana"
    },
    {
        "city": "Santa Maria",
        "growth": 30.9,
        "latitude": 34.9530337,
        "longitude": -120.4357191,
        "population": 102216,
        "state": "California"
    },
    {
        "city": "Woodbury",
        "growth": 39.8,
        "latitude": 44.9238552,
        "longitude": -92.9593797,
        "population": 65656,
        "state": "Minnesota"
    },
    {
        "city": "Hutchinson",
        "growth": 0.1,
        "latitude": 38.0608445,
        "longitude": -97.92977429999999,
        "population": 41889,
        "state": "Kansas"
    },
    {
        "city": "Miramar",
        "growth": 74.7,
        "latitude": 25.9860762,
        "longitude": -80.30356019999999,
        "population": 130288,
        "state": "Florida"
    },
    {
        "city": "Casper",
        "growth": 19.9,
        "latitude": 42.866632,
        "longitude": -106.313081,
        "population": 59628,
        "state": "Wyoming"
    },
    {
        "city": "Hillsboro",
        "growth": 36.4,
        "latitude": 45.5228939,
        "longitude": -122.989827,
        "population": 97368,
        "state": "Oregon"
    },
    {
        "city": "Monterey Park",
        "growth": 1.5,
        "latitude": 34.0625106,
        "longitude": -118.1228476,
        "population": 61085,
        "state": "California"
    },
    {
        "city": "Carmel",
        "growth": 60.4,
        "latitude": 39.978371,
        "longitude": -86.1180435,
        "population": 85927,
        "state": "Indiana"
    },
    {
        "city": "Roswell",
        "growth": 15.2,
        "latitude": 34.0232431,
        "longitude": -84.3615555,
        "population": 94034,
        "state": "Georgia"
    },
    {
        "city": "Blue Springs",
        "growth": 9.9,
        "latitude": 39.0169509,
        "longitude": -94.2816148,
        "population": 53294,
        "state": "Missouri"
    },
    {
        "city": "South San Francisco",
        "growth": 9.1,
        "latitude": 37.654656,
        "longitude": -122.4077498,
        "population": 66174,
        "state": "California"
    },
    {
        "city": "Compton",
        "growth": 4.5,
        "latitude": 33.8958492,
        "longitude": -118.2200712,
        "population": 97877,
        "state": "California"
    },
    {
        "city": "Danville",
        "growth": 3.7,
        "latitude": 37.8215929,
        "longitude": -121.9999606,
        "population": 43341,
        "state": "California"
    },
    {
        "city": "Pearland",
        "growth": 117.2,
        "latitude": 29.5635666,
        "longitude": -95.2860474,
        "population": 100065,
        "state": "Texas"
    },
    {
        "city": "Pacifica",
        "growth": 0.5,
        "latitude": 37.6138253,
        "longitude": -122.4869194,
        "population": 38606,
        "state": "California"
    },
    {
        "city": "Boynton Beach",
        "growth": 17.3,
        "latitude": 26.5317866,
        "longitude": -80.0905465,
        "population": 71097,
        "state": "Florida"
    },
    {
        "city": "Rapid City",
        "growth": 17.9,
        "latitude": 44.0805434,
        "longitude": -103.2310149,
        "population": 70812,
        "state": "South Dakota"
    },
    {
        "city": "Somerville",
        "growth": 1.6,
        "latitude": 42.3875968,
        "longitude": -71.0994968,
        "population": 78804,
        "state": "Massachusetts"
    },
    {
        "city": "San Ramon",
        "growth": 65.8,
        "latitude": 37.7799273,
        "longitude": -121.9780153,
        "population": 74513,
        "state": "California"
    },
    {
        "city": "Tulare",
        "growth": 33.3,
        "latitude": 36.2077288,
        "longitude": -119.3473379,
        "population": 61170,
        "state": "California"
    },
    {
        "city": "Passaic",
        "growth": 4.3,
        "latitude": 40.8567662,
        "longitude": -74.1284764,
        "population": 70868,
        "state": "New Jersey"
    },
    {
        "city": "Keizer",
        "growth": 14.4,
        "latitude": 44.9901194,
        "longitude": -123.0262077,
        "population": 37064,
        "state": "Oregon"
    },
    {
        "city": "Hickory",
        "growth": 7,
        "latitude": 35.7344538,
        "longitude": -81.3444573,
        "population": 40361,
        "state": "North Carolina"
    },
    {
        "city": "Mount Prospect",
        "growth": -2.5,
        "latitude": 42.0664167,
        "longitude": -87.9372908,
        "population": 54771,
        "state": "Illinois"
    },
    {
        "city": "Atlantic City",
        "growth": -2.2,
        "latitude": 39.3642834,
        "longitude": -74.4229266,
        "population": 39551,
        "state": "New Jersey"
    },
    {
        "city": "Pueblo",
        "growth": 5.9,
        "latitude": 38.2544472,
        "longitude": -104.6091409,
        "population": 108249,
        "state": "Colorado"
    },
    {
        "city": "Suffolk",
        "growth": 33.5,
        "latitude": 36.7282054,
        "longitude": -76.5835621,
        "population": 85728,
        "state": "Virginia"
    },
    {
        "city": "Coachella",
        "growth": 88.4,
        "latitude": 33.6803003,
        "longitude": -116.173894,
        "population": 43092,
        "state": "California"
    },
    {
        "city": "Gilbert",
        "growth": 96,
        "latitude": 33.3528264,
        "longitude": -111.789027,
        "population": 229972,
        "state": "Arizona"
    },
    {
        "city": "Montebello",
        "growth": 2,
        "latitude": 34.0165053,
        "longitude": -118.1137535,
        "population": 63495,
        "state": "California"
    },
    {
        "city": "Lafayette",
        "growth": 14.5,
        "latitude": 40.4167022,
        "longitude": -86.87528689999999,
        "population": 70373,
        "state": "Indiana"
    },
    {
        "city": "Hoboken",
        "growth": 35.8,
        "latitude": 40.7439905,
        "longitude": -74.0323626,
        "population": 52575,
        "state": "New Jersey"
    },
    {
        "city": "Carson City",
        "growth": 2.9,
        "latitude": 39.1637984,
        "longitude": -119.7674034,
        "population": 54080,
        "state": "Nevada"
    },
    {
        "city": "Washington",
        "growth": 13,
        "latitude": 38.9071923,
        "longitude": -77.0368707,
        "population": 646449,
        "state": "District of Columbia"
    },
    {
        "city": "Springfield",
        "growth": 1.1,
        "latitude": 42.1014831,
        "longitude": -72.589811,
        "population": 153703,
        "state": "Massachusetts"
    },
    {
        "city": "Pawtucket",
        "growth": -2.5,
        "latitude": 41.878711,
        "longitude": -71.38255579999999,
        "population": 71172,
        "state": "Rhode Island"
    },
    {
        "city": "North Las Vegas",
        "growth": 92.2,
        "latitude": 36.1988592,
        "longitude": -115.1175013,
        "population": 226877,
        "state": "Nevada"
    },
    {
        "city": "Malden",
        "growth": 7.4,
        "latitude": 42.4250964,
        "longitude": -71.066163,
        "population": 60509,
        "state": "Massachusetts"
    },
    {
        "city": "Chesterfield",
        "growth": 1.9,
        "latitude": 38.6631083,
        "longitude": -90.5770675,
        "population": 47749,
        "state": "Missouri"
    },
    {
        "city": "Fresno",
        "growth": 18.3,
        "latitude": 36.7468422,
        "longitude": -119.7725868,
        "population": 509924,
        "state": "California"
    },
    {
        "city": "Edina",
        "growth": 4.1,
        "latitude": 44.8896866,
        "longitude": -93.3499489,
        "population": 49376,
        "state": "Minnesota"
    },
    {
        "city": "Albuquerque",
        "growth": 23.5,
        "latitude": 35.0853336,
        "longitude": -106.6055534,
        "population": 556495,
        "state": "New Mexico"
    },
    {
        "city": "Palm Beach Gardens",
        "growth": 39.6,
        "latitude": 26.8233946,
        "longitude": -80.13865469999999,
        "population": 50699,
        "state": "Florida"
    },
    {
        "city": "Huntersville",
        "growth": 92.9,
        "latitude": 35.410694,
        "longitude": -80.84285040000002,
        "population": 50458,
        "state": "North Carolina"
    },
    {
        "city": "Burlington",
        "growth": 6.1,
        "latitude": 44.4758825,
        "longitude": -73.21207199999999,
        "population": 42284,
        "state": "Vermont"
    },
    {
        "city": "Rancho Palos Verdes",
        "growth": 2.9,
        "latitude": 33.7444613,
        "longitude": -118.3870173,
        "population": 42448,
        "state": "California"
    },
    {
        "city": "Owensboro",
        "growth": 7.7,
        "latitude": 37.7719074,
        "longitude": -87.1111676,
        "population": 58416,
        "state": "Kentucky"
    },
    {
        "city": "Burleson",
        "growth": 85.3,
        "latitude": 32.5420821,
        "longitude": -97.3208492,
        "population": 40714,
        "state": "Texas"
    },
    {
        "city": "Sayreville",
        "growth": 9.6,
        "latitude": 40.45940210000001,
        "longitude": -74.360846,
        "population": 44412,
        "state": "New Jersey"
    },
    {
        "city": "Bowie",
        "growth": 8.6,
        "latitude": 39.0067768,
        "longitude": -76.77913649999999,
        "population": 56759,
        "state": "Maryland"
    },
    {
        "city": "Indio",
        "growth": 66,
        "latitude": 33.7205771,
        "longitude": -116.2155619,
        "population": 83539,
        "state": "California"
    },
    {
        "city": "Oakley",
        "growth": 47.7,
        "latitude": 37.9974219,
        "longitude": -121.7124536,
        "population": 38194,
        "state": "California"
    },
    {
        "city": "Lake Charles",
        "growth": 3,
        "latitude": 30.2265949,
        "longitude": -93.2173758,
        "population": 74024,
        "state": "Louisiana"
    },
    {
        "city": "Delray Beach",
        "growth": 6.1,
        "latitude": 26.4614625,
        "longitude": -80.0728201,
        "population": 64072,
        "state": "Florida"
    },
    {
        "city": "Cedar Rapids",
        "growth": 5.4,
        "latitude": 41.9778795,
        "longitude": -91.6656232,
        "population": 128429,
        "state": "Iowa"
    },
    {
        "city": "Rowlett",
        "growth": 28.6,
        "latitude": 32.9029017,
        "longitude": -96.56388,
        "population": 58043,
        "state": "Texas"
    },
    {
        "city": "Boise City",
        "growth": 9.5,
        "latitude": 43.6187102,
        "longitude": -116.2146068,
        "population": 214237,
        "state": "Idaho"
    },
    {
        "city": "Athens-Clarke County",
        "growth": 19,
        "latitude": 33.9519347,
        "longitude": -83.357567,
        "population": 119980,
        "state": "Georgia"
    },
    {
        "city": "Concord",
        "growth": 2.9,
        "latitude": 37.9779776,
        "longitude": -122.0310733,
        "population": 125880,
        "state": "California"
    },
    {
        "city": "Wilmington",
        "growth": -1.6,
        "latitude": 39.7390721,
        "longitude": -75.5397878,
        "population": 71525,
        "state": "Delaware"
    },
    {
        "city": "Davenport",
        "growth": 3.9,
        "latitude": 41.5236437,
        "longitude": -90.5776367,
        "population": 102157,
        "state": "Iowa"
    },
    {
        "city": "Missoula",
        "growth": 19.7,
        "latitude": 46.87871759999999,
        "longitude": -113.996586,
        "population": 69122,
        "state": "Montana"
    },
    {
        "city": "St. George",
        "growth": 53.1,
        "latitude": 37.0965278,
        "longitude": -113.5684164,
        "population": 76817,
        "state": "Utah"
    },
    {
        "city": "Apple Valley",
        "growth": 29.9,
        "latitude": 34.5008311,
        "longitude": -117.1858759,
        "population": 70924,
        "state": "California"
    },
    {
        "city": "Clovis",
        "growth": 21.3,
        "latitude": 34.4047987,
        "longitude": -103.2052272,
        "population": 39508,
        "state": "New Mexico"
    },
    {
        "city": "Flint",
        "growth": -20,
        "latitude": 43.0125274,
        "longitude": -83.6874562,
        "population": 99763,
        "state": "Michigan"
    },
    {
        "city": "Sumter",
        "growth": 1.3,
        "latitude": 33.9204354,
        "longitude": -80.3414693,
        "population": 41190,
        "state": "South Carolina"
    },
    {
        "city": "North Lauderdale",
        "growth": 10.8,
        "latitude": 26.217305,
        "longitude": -80.2258811,
        "population": 42757,
        "state": "Florida"
    },
    {
        "city": "Biloxi",
        "growth": -11.5,
        "latitude": 30.3960318,
        "longitude": -88.88530779999999,
        "population": 44820,
        "state": "Mississippi"
    },
    {
        "city": "Lancaster",
        "growth": 4.5,
        "latitude": 40.0378755,
        "longitude": -76.3055144,
        "population": 59325,
        "state": "Pennsylvania"
    },
    {
        "city": "Fontana",
        "growth": 38.3,
        "latitude": 34.0922335,
        "longitude": -117.435048,
        "population": 203003,
        "state": "California"
    },
    {
        "city": "Coral Gables",
        "growth": 16.1,
        "latitude": 25.72149,
        "longitude": -80.2683838,
        "population": 49631,
        "state": "Florida"
    },
    {
        "city": "Norwalk",
        "growth": 5.6,
        "latitude": 41.11774399999999,
        "longitude": -73.4081575,
        "population": 87776,
        "state": "Connecticut"
    },
    {
        "city": "Valdosta",
        "growth": 22.3,
        "latitude": 30.8327022,
        "longitude": -83.2784851,
        "population": 56481,
        "state": "Georgia"
    },
    {
        "city": "Lakewood",
        "growth": 2.1,
        "latitude": 33.8536269,
        "longitude": -118.1339563,
        "population": 81121,
        "state": "California"
    },
    {
        "city": "San Francisco",
        "growth": 7.7,
        "latitude": 37.7749295,
        "longitude": -122.4194155,
        "population": 837442,
        "state": "California"
    },
    {
        "city": "Pasadena",
        "growth": 3.8,
        "latitude": 34.1477849,
        "longitude": -118.1445155,
        "population": 139731,
        "state": "California"
    },
    {
        "city": "Bridgeport",
        "growth": 5.4,
        "latitude": 41.1865478,
        "longitude": -73.19517669999999,
        "population": 147216,
        "state": "Connecticut"
    },
    {
        "city": "Huntington Beach",
        "growth": 3.9,
        "latitude": 33.660297,
        "longitude": -117.9992265,
        "population": 197575,
        "state": "California"
    },
    {
        "city": "Phoenix",
        "growth": 14,
        "latitude": 33.4483771,
        "longitude": -112.0740373,
        "population": 1513367,
        "state": "Arizona"
    },
    {
        "city": "Portland",
        "growth": 3.2,
        "latitude": 43.66147100000001,
        "longitude": -70.2553259,
        "population": 66318,
        "state": "Maine"
    },
    {
        "city": "Freeport",
        "growth": -1.4,
        "latitude": 40.6576022,
        "longitude": -73.58318349999999,
        "population": 43167,
        "state": "New York"
    },
    {
        "city": "Logan",
        "growth": 14.5,
        "latitude": 41.7369803,
        "longitude": -111.8338359,
        "population": 48913,
        "state": "Utah"
    },
    {
        "city": "Salinas",
        "growth": 8.4,
        "latitude": 36.6777372,
        "longitude": -121.6555013,
        "population": 155662,
        "state": "California"
    },
    {
        "city": "Wichita Falls",
        "growth": 0.7,
        "latitude": 33.9137085,
        "longitude": -98.4933873,
        "population": 104898,
        "state": "Texas"
    },
    {
        "city": "White Plains",
        "growth": 8.5,
        "latitude": 41.03398620000001,
        "longitude": -73.7629097,
        "population": 57866,
        "state": "New York"
    },
    {
        "city": "St. Charles",
        "growth": 11.3,
        "latitude": 38.7881062,
        "longitude": -90.4974359,
        "population": 67569,
        "state": "Missouri"
    },
    {
        "city": "Texarkana",
        "growth": 7.4,
        "latitude": 33.425125,
        "longitude": -94.04768820000001,
        "population": 37442,
        "state": "Texas"
    },
    {
        "city": "Olympia",
        "growth": 12.1,
        "latitude": 47.0378741,
        "longitude": -122.9006951,
        "population": 48338,
        "state": "Washington"
    },
    {
        "city": "Detroit",
        "growth": -27.1,
        "latitude": 42.331427,
        "longitude": -83.0457538,
        "population": 688701,
        "state": "Michigan"
    },
    {
        "city": "Troy",
        "growth": 1.5,
        "latitude": 42.7284117,
        "longitude": -73.69178509999999,
        "population": 49974,
        "state": "New York"
    },
    {
        "city": "Everett",
        "growth": 9.4,
        "latitude": 47.9789848,
        "longitude": -122.2020794,
        "population": 105370,
        "state": "Washington"
    },
    {
        "city": "Battle Creek",
        "growth": -2.8,
        "latitude": 42.3211522,
        "longitude": -85.17971419999999,
        "population": 51848,
        "state": "Michigan"
    },
    {
        "city": "Fairfield",
        "growth": 12.8,
        "latitude": 38.24935809999999,
        "longitude": -122.0399663,
        "population": 109320,
        "state": "California"
    },
    {
        "city": "Peoria",
        "growth": 46.5,
        "latitude": 33.5805955,
        "longitude": -112.2373779,
        "population": 162592,
        "state": "Arizona"
    },
    {
        "city": "Columbia",
        "growth": 34,
        "latitude": 38.9517053,
        "longitude": -92.3340724,
        "population": 115276,
        "state": "Missouri"
    },
    {
        "city": "Highland",
        "growth": 21,
        "latitude": 34.1283442,
        "longitude": -117.2086513,
        "population": 54291,
        "state": "California"
    },
    {
        "city": "Mission",
        "growth": 74.5,
        "latitude": 26.2159066,
        "longitude": -98.32529319999999,
        "population": 81050,
        "state": "Texas"
    },
    {
        "city": "Tracy",
        "growth": 45.9,
        "latitude": 37.7396513,
        "longitude": -121.4252227,
        "population": 84691,
        "state": "California"
    },
    {
        "city": "Westminster",
        "growth": 3.9,
        "latitude": 33.7513419,
        "longitude": -117.9939921,
        "population": 91739,
        "state": "California"
    },
    {
        "city": "Monroe",
        "growth": -6.1,
        "latitude": 32.5093109,
        "longitude": -92.1193012,
        "population": 49761,
        "state": "Louisiana"
    },
    {
        "city": "Utica",
        "growth": 2.2,
        "latitude": 43.100903,
        "longitude": -75.232664,
        "population": 61808,
        "state": "New York"
    },
    {
        "city": "Beaumont",
        "growth": 254.5,
        "latitude": 33.9294606,
        "longitude": -116.977248,
        "population": 40481,
        "state": "California"
    },
    {
        "city": "Kalamazoo",
        "growth": -1.9,
        "latitude": 42.2917069,
        "longitude": -85.5872286,
        "population": 75548,
        "state": "Michigan"
    },
    {
        "city": "Culver City",
        "growth": 1.3,
        "latitude": 34.0211224,
        "longitude": -118.3964665,
        "population": 39428,
        "state": "California"
    },
    {
        "city": "San Clemente",
        "growth": 28.6,
        "latitude": 33.4269728,
        "longitude": -117.6119925,
        "population": 65040,
        "state": "California"
    },
    {
        "city": "State College",
        "growth": 8.7,
        "latitude": 40.7933949,
        "longitude": -77.8600012,
        "population": 41757,
        "state": "Pennsylvania"
    },
    {
        "city": "Fitchburg",
        "growth": 3.5,
        "latitude": 42.5834228,
        "longitude": -71.8022955,
        "population": 40383,
        "state": "Massachusetts"
    },
    {
        "city": "Brentwood",
        "growth": 122.3,
        "latitude": 37.931868,
        "longitude": -121.6957863,
        "population": 55000,
        "state": "California"
    },
    {
        "city": "Ankeny",
        "growth": 86.9,
        "latitude": 41.7317884,
        "longitude": -93.6001278,
        "population": 51567,
        "state": "Iowa"
    },
    {
        "city": "Macon",
        "growth": -7.3,
        "latitude": 32.8406946,
        "longitude": -83.6324022,
        "population": 89981,
        "state": "Georgia"
    },
    {
        "city": "Southfield",
        "growth": -6.7,
        "latitude": 42.4733688,
        "longitude": -83.2218731,
        "population": 73006,
        "state": "Michigan"
    },
    {
        "city": "Burien",
        "growth": 56.7,
        "latitude": 47.4703767,
        "longitude": -122.3467918,
        "population": 49858,
        "state": "Washington"
    },
    {
        "city": "Harlingen",
        "growth": 11.6,
        "latitude": 26.1906306,
        "longitude": -97.69610259999999,
        "population": 65665,
        "state": "Texas"
    },
    {
        "city": "Summerville",
        "growth": 62.9,
        "latitude": 33.0185039,
        "longitude": -80.17564809999999,
        "population": 46074,
        "state": "South Carolina"
    },
    {
        "city": "Brockton",
        "growth": -0.3,
        "latitude": 42.0834335,
        "longitude": -71.0183787,
        "population": 94089,
        "state": "Massachusetts"
    },
    {
        "city": "Tulsa",
        "growth": 1.3,
        "latitude": 36.1539816,
        "longitude": -95.99277500000001,
        "population": 398121,
        "state": "Oklahoma"
    },
    {
        "city": "Goose Creek",
        "growth": 26.1,
        "latitude": 32.9810059,
        "longitude": -80.03258670000001,
        "population": 39823,
        "state": "South Carolina"
    },
    {
        "city": "Burnsville",
        "growth": 1.9,
        "latitude": 44.7677424,
        "longitude": -93.27772259999999,
        "population": 61434,
        "state": "Minnesota"
    },
    {
        "city": "Taunton",
        "growth": 0,
        "latitude": 41.900101,
        "longitude": -71.0897674,
        "population": 56069,
        "state": "Massachusetts"
    },
    {
        "city": "Melbourne",
        "growth": 5.9,
        "latitude": 28.0836269,
        "longitude": -80.60810889999999,
        "population": 77508,
        "state": "Florida"
    },
    {
        "city": "Lancaster",
        "growth": 33.8,
        "latitude": 34.6867846,
        "longitude": -118.1541632,
        "population": 159523,
        "state": "California"
    },
    {
        "city": "Columbus",
        "growth": 8.7,
        "latitude": 32.4609764,
        "longitude": -84.9877094,
        "population": 202824,
        "state": "Georgia"
    },
    {
        "city": "Gulfport",
        "growth": -0.6,
        "latitude": 30.3674198,
        "longitude": -89.0928155,
        "population": 71012,
        "state": "Mississippi"
    },
    {
        "city": "Oak Lawn",
        "growth": 3.3,
        "latitude": 41.719978,
        "longitude": -87.7479528,
        "population": 57073,
        "state": "Illinois"
    },
    {
        "city": "Redding",
        "growth": 11.9,
        "latitude": 40.5865396,
        "longitude": -122.3916754,
        "population": 91119,
        "state": "California"
    },
    {
        "city": "Fountain Valley",
        "growth": 3,
        "latitude": 33.7091847,
        "longitude": -117.9536697,
        "population": 56707,
        "state": "California"
    },
    {
        "city": "Brownsville",
        "growth": 26.8,
        "latitude": 25.9017472,
        "longitude": -97.4974838,
        "population": 181860,
        "state": "Texas"
    },
    {
        "city": "York",
        "growth": 6.4,
        "latitude": 39.9625984,
        "longitude": -76.727745,
        "population": 43935,
        "state": "Pennsylvania"
    },
    {
        "city": "Bedford",
        "growth": 2.9,
        "latitude": 32.844017,
        "longitude": -97.1430671,
        "population": 48592,
        "state": "Texas"
    },
    {
        "city": "Sammamish",
        "growth": 44.1,
        "latitude": 47.61626829999999,
        "longitude": -122.0355736,
        "population": 50169,
        "state": "Washington"
    },
    {
        "city": "San Buenaventura (Ventura)",
        "growth": 7.4,
        "latitude": 34.274646,
        "longitude": -119.2290316,
        "population": 108817,
        "state": "California"
    },
    {
        "city": "Hemet",
        "growth": 37.6,
        "latitude": 33.7475203,
        "longitude": -116.9719684,
        "population": 81750,
        "state": "California"
    },
    {
        "city": "Berwyn",
        "growth": 5.1,
        "latitude": 41.85058739999999,
        "longitude": -87.7936685,
        "population": 56758,
        "state": "Illinois"
    },
    {
        "city": "Redlands",
        "growth": 9.4,
        "latitude": 34.0555693,
        "longitude": -117.1825381,
        "population": 69999,
        "state": "California"
    },
    {
        "city": "Wichita",
        "growth": 9.7,
        "latitude": 37.688889,
        "longitude": -97.336111,
        "population": 386552,
        "state": "Kansas"
    },
    {
        "city": "Murrieta",
        "growth": 107.4,
        "latitude": 33.5539143,
        "longitude": -117.2139232,
        "population": 107479,
        "state": "California"
    },
    {
        "city": "West Palm Beach",
        "growth": 23.5,
        "latitude": 26.7153424,
        "longitude": -80.0533746,
        "population": 102436,
        "state": "Florida"
    },
    {
        "city": "Carson",
        "growth": 2.9,
        "latitude": 33.8316745,
        "longitude": -118.281693,
        "population": 92599,
        "state": "California"
    },
    {
        "city": "Wilson",
        "growth": 10.1,
        "latitude": 35.7212689,
        "longitude": -77.9155395,
        "population": 49628,
        "state": "North Carolina"
    },
    {
        "city": "Manchester",
        "growth": 2.9,
        "latitude": 42.9956397,
        "longitude": -71.4547891,
        "population": 110378,
        "state": "New Hampshire"
    },
    {
        "city": "Antioch",
        "growth": 16.9,
        "latitude": 38.0049214,
        "longitude": -121.805789,
        "population": 107100,
        "state": "California"
    },
    {
        "city": "Apopka",
        "growth": 63.9,
        "latitude": 28.6934076,
        "longitude": -81.5322149,
        "population": 45587,
        "state": "Florida"
    },
    {
        "city": "Vancouver",
        "growth": 14.2,
        "latitude": 45.6387281,
        "longitude": -122.6614861,
        "population": 167405,
        "state": "Washington"
    },
    {
        "city": "Des Moines",
        "growth": 3.9,
        "latitude": 41.6005448,
        "longitude": -93.6091064,
        "population": 207510,
        "state": "Iowa"
    },
    {
        "city": "Woburn",
        "growth": 4.4,
        "latitude": 42.4792618,
        "longitude": -71.1522765,
        "population": 39083,
        "state": "Massachusetts"
    },
    {
        "city": "Oakland Park",
        "growth": 2.7,
        "latitude": 26.1723065,
        "longitude": -80.1319893,
        "population": 43286,
        "state": "Florida"
    },
    {
        "city": "Roy",
        "growth": 13.3,
        "latitude": 41.1616108,
        "longitude": -112.0263313,
        "population": 37733,
        "state": "Utah"
    },
    {
        "city": "Nampa",
        "growth": 57.9,
        "latitude": 43.5407172,
        "longitude": -116.5634624,
        "population": 86518,
        "state": "Idaho"
    },
    {
        "city": "Denver",
        "growth": 16.7,
        "latitude": 39.7392358,
        "longitude": -104.990251,
        "population": 649495,
        "state": "Colorado"
    },
    {
        "city": "Roswell",
        "growth": 7.5,
        "latitude": 33.3942655,
        "longitude": -104.5230242,
        "population": 48611,
        "state": "New Mexico"
    },
    {
        "city": "Mansfield",
        "growth": -10.1,
        "latitude": 40.75839,
        "longitude": -82.5154471,
        "population": 46454,
        "state": "Ohio"
    },
    {
        "city": "Columbia",
        "growth": 11.7,
        "latitude": 34.0007104,
        "longitude": -81.0348144,
        "population": 133358,
        "state": "South Carolina"
    },
    {
        "city": "Dublin",
        "growth": 70,
        "latitude": 37.7021521,
        "longitude": -121.9357918,
        "population": 52105,
        "state": "California"
    },
    {
        "city": "New Brunswick",
        "growth": 15.5,
        "latitude": 40.4862157,
        "longitude": -74.4518188,
        "population": 55831,
        "state": "New Jersey"
    },
    {
        "city": "Bellingham",
        "growth": 21.8,
        "latitude": 48.74908,
        "longitude": -122.4781473,
        "population": 82631,
        "state": "Washington"
    },
    {
        "city": "Houston",
        "growth": 11,
        "latitude": 29.7604267,
        "longitude": -95.3698028,
        "population": 2195914,
        "state": "Texas"
    },
    {
        "city": "Rocky Mount",
        "growth": -3.1,
        "latitude": 35.9382103,
        "longitude": -77.7905339,
        "population": 56954,
        "state": "North Carolina"
    },
    {
        "city": "Attleboro",
        "growth": 4.6,
        "latitude": 41.94454409999999,
        "longitude": -71.2856082,
        "population": 43886,
        "state": "Massachusetts"
    },
    {
        "city": "Lawrence",
        "growth": 12.7,
        "latitude": 38.9716689,
        "longitude": -95.2352501,
        "population": 90811,
        "state": "Kansas"
    },
    {
        "city": "South Gate",
        "growth": -0.8,
        "latitude": 33.954737,
        "longitude": -118.2120161,
        "population": 95677,
        "state": "California"
    },
    {
        "city": "Cerritos",
        "growth": -3.6,
        "latitude": 33.8583483,
        "longitude": -118.0647871,
        "population": 49707,
        "state": "California"
    },
    {
        "city": "O'Fallon",
        "growth": 62.6,
        "latitude": 38.8106075,
        "longitude": -90.69984769999999,
        "population": 82809,
        "state": "Missouri"
    },
    {
        "city": "New Haven",
        "growth": 5.5,
        "latitude": 41.308274,
        "longitude": -72.9278835,
        "population": 130660,
        "state": "Connecticut"
    },
    {
        "city": "Lakeland",
        "growth": 18.3,
        "latitude": 28.0394654,
        "longitude": -81.9498042,
        "population": 100710,
        "state": "Florida"
    },
    {
        "city": "Walnut Creek",
        "growth": 3.5,
        "latitude": 37.9100783,
        "longitude": -122.0651819,
        "population": 66900,
        "state": "California"
    },
    {
        "city": "Palm Desert",
        "growth": 13.2,
        "latitude": 33.7222445,
        "longitude": -116.3744556,
        "population": 50508,
        "state": "California"
    },
    {
        "city": "Longmont",
        "growth": 24.4,
        "latitude": 40.1672068,
        "longitude": -105.1019275,
        "population": 89919,
        "state": "Colorado"
    },
    {
        "city": "Hammond",
        "growth": -4.6,
        "latitude": 41.5833688,
        "longitude": -87.5000412,
        "population": 78967,
        "state": "Indiana"
    },
    {
        "city": "Bloomington",
        "growth": 16.1,
        "latitude": 39.165325,
        "longitude": -86.52638569999999,
        "population": 82575,
        "state": "Indiana"
    },
    {
        "city": "Monrovia",
        "growth": 0.2,
        "latitude": 34.1442616,
        "longitude": -118.0019482,
        "population": 37101,
        "state": "California"
    },
    {
        "city": "Deerfield Beach",
        "growth": 4.8,
        "latitude": 26.3184123,
        "longitude": -80.09976569999999,
        "population": 78041,
        "state": "Florida"
    },
    {
        "city": "Hampton",
        "growth": -6.6,
        "latitude": 37.0298687,
        "longitude": -76.34522179999999,
        "population": 136699,
        "state": "Virginia"
    },
    {
        "city": "Berkeley",
        "growth": 13.3,
        "latitude": 37.8715926,
        "longitude": -122.272747,
        "population": 116768,
        "state": "California"
    },
    {
        "city": "Ormond Beach",
        "growth": 5.8,
        "latitude": 29.2858129,
        "longitude": -81.0558894,
        "population": 38661,
        "state": "Florida"
    },
    {
        "city": "Commerce City",
        "growth": 135.4,
        "latitude": 39.8083196,
        "longitude": -104.9338675,
        "population": 49799,
        "state": "Colorado"
    },
    {
        "city": "Hempstead",
        "growth": 4,
        "latitude": 40.7062128,
        "longitude": -73.6187397,
        "population": 55361,
        "state": "New York"
    },
    {
        "city": "Springdale",
        "growth": 57.1,
        "latitude": 36.18674420000001,
        "longitude": -94.1288141,
        "population": 75229,
        "state": "Arkansas"
    },
    {
        "city": "Chelsea",
        "growth": 7.3,
        "latitude": 42.3917638,
        "longitude": -71.0328284,
        "population": 37670,
        "state": "Massachusetts"
    },
    {
        "city": "Mankato",
        "growth": 24.7,
        "latitude": 44.1635775,
        "longitude": -93.99939959999999,
        "population": 40641,
        "state": "Minnesota"
    },
    {
        "city": "Leesburg",
        "growth": 66,
        "latitude": 39.1156615,
        "longitude": -77.56360149999999,
        "population": 47673,
        "state": "Virginia"
    },
    {
        "city": "Grand Junction",
        "growth": 30.9,
        "latitude": 39.0638705,
        "longitude": -108.5506486,
        "population": 59778,
        "state": "Colorado"
    },
    {
        "city": "Lompoc",
        "growth": 5.5,
        "latitude": 34.6391501,
        "longitude": -120.4579409,
        "population": 43509,
        "state": "California"
    },
    {
        "city": "Anaheim",
        "growth": 4.7,
        "latitude": 33.8352932,
        "longitude": -117.9145036,
        "population": 345012,
        "state": "California"
    },
    {
        "city": "Aliso Viejo",
        "growth": 25.4,
        "latitude": 33.5676842,
        "longitude": -117.7256083,
        "population": 50175,
        "state": "California"
    },
    {
        "city": "Irvine",
        "growth": 61.3,
        "latitude": 33.6839473,
        "longitude": -117.7946942,
        "population": 236716,
        "state": "California"
    },
    {
        "city": "Bismarck",
        "growth": 20.1,
        "latitude": 46.8083268,
        "longitude": -100.7837392,
        "population": 67034,
        "state": "North Dakota"
    },
    {
        "city": "Renton",
        "growth": 88.4,
        "latitude": 47.48287759999999,
        "longitude": -122.2170661,
        "population": 97003,
        "state": "Washington"
    },
    {
        "city": "Lowell",
        "growth": 3.4,
        "latitude": 42.6334247,
        "longitude": -71.31617179999999,
        "population": 108861,
        "state": "Massachusetts"
    },
    {
        "city": "Baltimore",
        "growth": -4,
        "latitude": 39.2903848,
        "longitude": -76.6121893,
        "population": 622104,
        "state": "Maryland"
    },
    {
        "city": "Eagan",
        "growth": 2.6,
        "latitude": 44.8041322,
        "longitude": -93.1668858,
        "population": 65453,
        "state": "Minnesota"
    },
    {
        "city": "Jeffersonville",
        "growth": 53.3,
        "latitude": 38.2775702,
        "longitude": -85.7371847,
        "population": 45929,
        "state": "Indiana"
    },
    {
        "city": "Fall River",
        "growth": -3.7,
        "latitude": 41.7014912,
        "longitude": -71.1550451,
        "population": 88697,
        "state": "Massachusetts"
    },
    {
        "city": "San Leandro",
        "growth": 10.3,
        "latitude": 37.7249296,
        "longitude": -122.1560768,
        "population": 87965,
        "state": "California"
    },
    {
        "city": "Corpus Christi",
        "growth": 14.1,
        "latitude": 27.8005828,
        "longitude": -97.39638099999999,
        "population": 316381,
        "state": "Texas"
    },
    {
        "city": "Memphis",
        "growth": -5.3,
        "latitude": 35.1495343,
        "longitude": -90.0489801,
        "population": 653450,
        "state": "Tennessee"
    },
    {
        "city": "Las Cruces",
        "growth": 37.6,
        "latitude": 32.3199396,
        "longitude": -106.7636538,
        "population": 101324,
        "state": "New Mexico"
    },
    {
        "city": "East Lansing",
        "growth": 4.2,
        "latitude": 42.7369792,
        "longitude": -84.48386540000001,
        "population": 48554,
        "state": "Michigan"
    },
    {
        "city": "Marysville",
        "growth": 115.7,
        "latitude": 48.0517637,
        "longitude": -122.1770818,
        "population": 63269,
        "state": "Washington"
    },
    {
        "city": "Beloit",
        "growth": 2.9,
        "latitude": 42.5083482,
        "longitude": -89.03177649999999,
        "population": 36888,
        "state": "Wisconsin"
    },
    {
        "city": "Fishers",
        "growth": 114.8,
        "latitude": 39.9567548,
        "longitude": -86.01335,
        "population": 83891,
        "state": "Indiana"
    },
    {
        "city": "Palo Alto",
        "growth": 13.7,
        "latitude": 37.4418834,
        "longitude": -122.1430195,
        "population": 66642,
        "state": "California"
    },
    {
        "city": "Lynwood",
        "growth": 2,
        "latitude": 33.930293,
        "longitude": -118.2114603,
        "population": 71371,
        "state": "California"
    },
    {
        "city": "Ceres",
        "growth": 34,
        "latitude": 37.5949316,
        "longitude": -120.9577098,
        "population": 46714,
        "state": "California"
    },
    {
        "city": "Temple",
        "growth": 27.1,
        "latitude": 31.0982344,
        "longitude": -97.342782,
        "population": 70190,
        "state": "Texas"
    },
    {
        "city": "Lincoln",
        "growth": 18,
        "latitude": 40.8257625,
        "longitude": -96.6851982,
        "population": 268738,
        "state": "Nebraska"
    },
    {
        "city": "New York",
        "growth": 4.8,
        "latitude": 40.7127837,
        "longitude": -74.0059413,
        "population": 8405837,
        "state": "New York"
    },
    {
        "city": "Palmdale",
        "growth": 33.7,
        "latitude": 34.5794343,
        "longitude": -118.1164613,
        "population": 157161,
        "state": "California"
    },
    {
        "city": "La Habra",
        "growth": 3.6,
        "latitude": 33.9319578,
        "longitude": -117.9461734,
        "population": 61653,
        "state": "California"
    },
    {
        "city": "Streamwood",
        "growth": 10.1,
        "latitude": 42.0255827,
        "longitude": -88.17840849999999,
        "population": 40351,
        "state": "Illinois"
    },
    {
        "city": "Palatine",
        "growth": 4.5,
        "latitude": 42.1103041,
        "longitude": -88.03424000000001,
        "population": 69350,
        "state": "Illinois"
    },
    {
        "city": "Castle Rock",
        "growth": 153.5,
        "latitude": 39.3722121,
        "longitude": -104.8560902,
        "population": 53063,
        "state": "Colorado"
    },
    {
        "city": "Harrisburg",
        "growth": 0.6,
        "latitude": 40.2731911,
        "longitude": -76.8867008,
        "population": 49188,
        "state": "Pennsylvania"
    },
    {
        "city": "Lynn",
        "growth": 2.6,
        "latitude": 42.46676300000001,
        "longitude": -70.9494938,
        "population": 91589,
        "state": "Massachusetts"
    },
    {
        "city": "West Valley City",
        "growth": 22.2,
        "latitude": 40.6916132,
        "longitude": -112.0010501,
        "population": 133579,
        "state": "Utah"
    },
    {
        "city": "Lake Forest",
        "growth": 4.2,
        "latitude": 33.6469661,
        "longitude": -117.689218,
        "population": 79312,
        "state": "California"
    },
    {
        "city": "Plano",
        "growth": 22.4,
        "latitude": 33.0198431,
        "longitude": -96.6988856,
        "population": 274409,
        "state": "Texas"
    },
    {
        "city": "Overland Park",
        "growth": 19.4,
        "latitude": 38.9822282,
        "longitude": -94.6707917,
        "population": 181260,
        "state": "Kansas"
    },
    {
        "city": "Newport Beach",
        "growth": 10.4,
        "latitude": 33.6189101,
        "longitude": -117.9289469,
        "population": 87273,
        "state": "California"
    },
    {
        "city": "Laredo",
        "growth": 38.2,
        "latitude": 27.5305671,
        "longitude": -99.48032409999999,
        "population": 248142,
        "state": "Texas"
    },
    {
        "city": "Peachtree Corners",
        "growth": 0,
        "latitude": 33.9698929,
        "longitude": -84.2214551,
        "population": 40059,
        "state": "Georgia"
    },
    {
        "city": "Grand Island",
        "growth": 16,
        "latitude": 40.9263957,
        "longitude": -98.3420118,
        "population": 50550,
        "state": "Nebraska"
    },
    {
        "city": "Coon Rapids",
        "growth": 0.6,
        "latitude": 45.1732394,
        "longitude": -93.30300629999999,
        "population": 62103,
        "state": "Minnesota"
    },
    {
        "city": "Broomfield",
        "growth": 50.3,
        "latitude": 39.9205411,
        "longitude": -105.0866504,
        "population": 59471,
        "state": "Colorado"
    },
    {
        "city": "Port St. Lucie",
        "growth": 91.7,
        "latitude": 27.2730492,
        "longitude": -80.3582261,
        "population": 171016,
        "state": "Florida"
    },
    {
        "city": "Rockford",
        "growth": -1,
        "latitude": 42.2711311,
        "longitude": -89.0939952,
        "population": 150251,
        "state": "Illinois"
    },
    {
        "city": "Moore",
        "growth": 41.5,
        "latitude": 35.3395079,
        "longitude": -97.48670279999999,
        "population": 58414,
        "state": "Oklahoma"
    },
    {
        "city": "Rogers",
        "growth": 50.6,
        "latitude": 36.3320196,
        "longitude": -94.1185366,
        "population": 60112,
        "state": "Arkansas"
    },
    {
        "city": "Springfield",
        "growth": -9.8,
        "latitude": 39.9242266,
        "longitude": -83.8088171,
        "population": 59357,
        "state": "Ohio"
    },
    {
        "city": "Pasco",
        "growth": 98.5,
        "latitude": 46.2395793,
        "longitude": -119.1005657,
        "population": 67599,
        "state": "Washington"
    },
    {
        "city": "Barnstable Town",
        "growth": -7.1,
        "latitude": 41.7003208,
        "longitude": -70.3002024,
        "population": 44641,
        "state": "Massachusetts"
    },
    {
        "city": "Portsmouth",
        "growth": -4.2,
        "latitude": 36.8354258,
        "longitude": -76.2982742,
        "population": 96205,
        "state": "Virginia"
    },
    {
        "city": "Allen",
        "growth": 104,
        "latitude": 33.1031744,
        "longitude": -96.67055030000002,
        "population": 92020,
        "state": "Texas"
    },
    {
        "city": "Tampa",
        "growth": 16,
        "latitude": 27.950575,
        "longitude": -82.4571776,
        "population": 352957,
        "state": "Florida"
    },
    {
        "city": "Muncie",
        "growth": -0.7,
        "latitude": 40.1933767,
        "longitude": -85.3863599,
        "population": 70316,
        "state": "Indiana"
    },
    {
        "city": "Albany",
        "growth": 4.1,
        "latitude": 42.6525793,
        "longitude": -73.7562317,
        "population": 98424,
        "state": "New York"
    },
    {
        "city": "Delano",
        "growth": 31.8,
        "latitude": 35.7688425,
        "longitude": -119.2470536,
        "population": 52403,
        "state": "California"
    },
    {
        "city": "Des Plaines",
        "growth": 3.2,
        "latitude": 42.0333623,
        "longitude": -87.88339909999999,
        "population": 58918,
        "state": "Illinois"
    },
    {
        "city": "Pine Bluff",
        "growth": -16.2,
        "latitude": 34.2284312,
        "longitude": -92.00319549999999,
        "population": 46094,
        "state": "Arkansas"
    },
    {
        "city": "Lake Elsinore",
        "growth": 96.5,
        "latitude": 33.6680772,
        "longitude": -117.3272615,
        "population": 57525,
        "state": "California"
    },
    {
        "city": "Camden",
        "growth": -3.6,
        "latitude": 39.9259463,
        "longitude": -75.1196199,
        "population": 76903,
        "state": "New Jersey"
    },
    {
        "city": "Fullerton",
        "growth": 9.8,
        "latitude": 33.8703596,
        "longitude": -117.9242966,
        "population": 138981,
        "state": "California"
    },
    {
        "city": "Escondido",
        "growth": 10.7,
        "latitude": 33.1192068,
        "longitude": -117.086421,
        "population": 148738,
        "state": "California"
    },
    {
        "city": "Burbank",
        "growth": 4.2,
        "latitude": 34.1808392,
        "longitude": -118.3089661,
        "population": 104709,
        "state": "California"
    },
    {
        "city": "St. Louis Park",
        "growth": 7.3,
        "latitude": 44.9597376,
        "longitude": -93.3702186,
        "population": 47411,
        "state": "Minnesota"
    },
    {
        "city": "Rochester",
        "growth": 23.9,
        "latitude": 44.0121221,
        "longitude": -92.4801989,
        "population": 110742,
        "state": "Minnesota"
    },
    {
        "city": "Keller",
        "growth": 53.3,
        "latitude": 32.9341893,
        "longitude": -97.229298,
        "population": 42907,
        "state": "Texas"
    },
    {
        "city": "Akron",
        "growth": -8.6,
        "latitude": 41.0814447,
        "longitude": -81.51900529999999,
        "population": 198100,
        "state": "Ohio"
    },
    {
        "city": "Tyler",
        "growth": 18.6,
        "latitude": 32.3512601,
        "longitude": -95.30106239999999,
        "population": 100223,
        "state": "Texas"
    },
    {
        "city": "North Charleston",
        "growth": 27.4,
        "latitude": 32.8546197,
        "longitude": -79.9748103,
        "population": 104054,
        "state": "South Carolina"
    },
    {
        "city": "Elmhurst",
        "growth": 5.7,
        "latitude": 41.8994744,
        "longitude": -87.9403418,
        "population": 45556,
        "state": "Illinois"
    },